~Version ---------------------------------------------------
VERS. 2.0 : CWLS log ASCII Standard -VERSION 2.0
WRAP.  NO : One line per frame
~Well ------------------------------------------------------
STRT.M            2772.75 : Starting Depth
STOP.M           2907.625 : Ending Depth
STEP.M              0.125 : Level Spacing
NULL.             -999.25 : Absent Value
COMP.            GDF SUEZ : Company
WELL.               L5-15 : Well
FLD .              L5 OIL : Field
LOC . LAT: 53 48'42.03" N : Location
PROV.    NOBLE PIET V EDE : Province
SRVC.         Baker ATLAS : Service Company
LIC .                     : License Number
DATE.         31-MAR-2013 : Log Date
UWI .                     : Unique Well ID
~Curve Information -----------------------------------------
DEPT  .M    99 995 99  1 : Depth
BHT   .DEGC 99 995 99  1 : Borehole temperature
CAL   .IN   70 280 99  1 : Caliper
CHT   .LBF  99 635 99  1 : Cable head tension
CN    .PU   42 890  1  1 : Compensated neutron porosity
CNC   .PU   42 995 99  1 : Borehole size corrected compensated neutron porosity
CNCQH .PU   42 995 99  1 : Borehole size corrected compensated neutron porosity
CNQH  .PU   42 890  1  1 : Compensated neutron porosity
DEPTH .M    99   1 99  1 : System depth
GR    .GAPI 30 310  1  1 : Gamma ray
MBVI  .PU   99 995 99  1 : MR irreducible fluids
MBVM  .PU   99 995 99  1 : MR moveable fluids
MCBW  .PU   99 995 99  1 : MR clay bound porosity fluids
MPHE  .PU   99 995 99  1 : MR effective porosity
MPHS  .PU   99 995 99  1 : MR total porosity
MPRM  .MD   99 995 99  1 : MR permeability
PEQH  .B/E  45 358  1  1 : Photo electric cross-section
PORZ  .PU   45 890 99  1 : Porosity for selectable matrix
PORZC .PU   99 995 99  1 : Corrected porosity
TEN   .LBF  99 635 99  1 : Differential tension
TTEN  .LBF  99 635 99  1 : Total tension
WTBH  .DEGC 99 995 99  1 : Temperature of borehole
ZCORQH.G/C3 45 356 99  1 : Density correction
ZDEN  .G/C3 45 350  1  1 : Formation bulk density
ZDENQH.G/C3 45 350  1  1 : Formation bulk density
ZDNC  .G/C3 94 995 99  1 : Borehole size/mud weight corrected density
ZDNCQH.G/C3 94 995 99  1 : Borehole size/mud weight corrected density
~Params ----------------------------------------------------
HID1.        GAMMA RAY LOG : Header Identifer
HID2.   MAGNETIC RESONANCE : Header Identifer
HID3.         EXPLORER LOG : Header Identifer
CLAB.             RIG NAME : County Label (Comments)
SLAB.              COUNTRY : State Label (Comments)
STAT.          NETHERLANDS : State Or Province
CMT1.          FIELD PRINT : Comment 1
FL1 .                  LON : 04 21'09.62"  E                     : Field Location 1
FL2 .                UTM N : : Field Location 2
FL3 .                UTM E : : Field Location 3
OS1 .     HDIL/XMAC ZDL/CN : Other Services Line 1
OS2 .                  DSL : Other Services Line 2
OS3 .                 GXPL : Other Services Line 3
OS4 .                  BHP : Other Services Line 4
OS5 .                  RCI : Other Services Line 5
PDAT.                  MSL : Permanent Datum
EPD .M                   0 : Elevation Of Perm. Datum
LMF .                   DF : Log Measured From
APD .M                47.5 : Above Permanent Datum
DMF .                   DF : Drilling Measured From
EKB .M                47.5 : Elevation Of Kelly Bushing
EDF .M                47.5 : Elevation Of Derrick Floor
EGL .M               -42.0 : Elevation Of Ground Level
TRIP.                    3 : Trip Number
SON .            13-163585 : Service Order Number
TDD .M              2915.0 : Total Depth - Driller
BLI .M              2880.0 : Bottom Log Interval
TLI .M              2790.0 : Top Log Interval
CSIZ.IN             18.625 : Casing Size
CBDR.M              1666.0 : Casing Bottom - Driller
BS  .IN              8.375 : Bit Size
DFT .                LTOBM : Drilling Fluid Type
DFD .G/C3             1.51 : Drilling Fluid Density
DFV .S                  25 : Drilling Fluid Viscosity
DFL .C3                1.2 : Drilling Fluid Loss
MSS .             FLOWLINE : Mud Sample Source
RMS .OHMM              >10 : Resistivity Of Mud Sample
RMFS.OHMM              >10 : Resistivity Of Mud Filtrate Sample
RMCS.OHMM              >10 : Resistivity Of Mud Cake Sample
MFSS.                   NA : Mud Filtrate Sample Source
MCSS.                   NA : Mud Cake Sample Source
RMB .OHMM              >10 : Mud Resistivity At Bht
TSC .             20.6 HRS : Time Since Circulation
MRT .DEGC             94.6 : Maximum Recorded Temperature
LUN .                 8934 : Logging Unit Number
LUL .           DEN HELDER : Logging Unit Location
ENGI. A. WIEFKERS/M. HEKEL : Engineer's Name
WITN.         P. GERRITSEN : Witness' Name
TSTR.       /GR/MREX/MREX/ : Title Service Mnemonic
TSTG.                   NA : Title Service Mnemonic
STUS.                FINAL : Status
LCNM.          BAKER ATLAS : Logging Company Name
LCC .                  150 : Logging Company Code
OPMD.              OH.WIRE : Operation Mode
PANA. A. WIEFKERS/M. HEKEL : Processing Analyst
PCON.          BAKER ATLAS : Processing Contractor
DATE.          31-MAR-2013 : Date As Month-Day-Year
TRIP.                    4 : Trip Number
SON .            13-163585 : Service Order Number
TDD .M              2915.0 : Total Depth - Driller
BLI .M              2897.6 : Bottom Log Interval
TLI .M              2779.0 : Top Log Interval
CSIZ.IN             18.625 : Casing Size
CBDR.M              1666.0 : Casing Bottom - Driller
BS  .IN              8.375 : Bit Size
DFT .                LTOBM : Drilling Fluid Type
DFD .G/C3             1.51 : Drilling Fluid Density
DFV .S                  25 : Drilling Fluid Viscosity
DFL .C3                1.2 : Drilling Fluid Loss
MSS .             FLOWLINE : Mud Sample Source
RMS .OHMM              >10 : Resistivity Of Mud Sample
RMFS.OHMM              >10 : Resistivity Of Mud Filtrate Sample
RMCS.OHMM              >10 : Resistivity Of Mud Cake Sample
MFSS.                   NA : Mud Filtrate Sample Source
MCSS.                   NA : Mud Cake Sample Source
RMB .OHMM              >10 : Mud Resistivity At Bht
TSC .             29.4 HRS : Time Since Circulation
MRT .DEGC             94.2 : Maximum Recorded Temperature
LUN .                 8934 : Logging Unit Number
LUL .           DEN HELDER : Logging Unit Location
ENGI. A. WIEFKERS/M. HEKEL : Engineer's Name
WITN.         P. GERRITSEN : Witness' Name
APIN.                      : API Serial Number
~Other -----------------------------------------------------
DEPTH AUDIT:
- ALL DEPTHS ARE REFERENCED TO DRILL FLOOR.
- LOG TIED INTO RUN A1 DSL/ORIT/XMAC/WGI/HDIL DATED 30-MAR-2013.
- TOOLS ZEROED ON DRILL FLOOR AT TTRM WRM AT 18.04 M.
GENERAL:
- LAST CIRCULATION ON 30-MAR-2013 AT 09:00 HRS FOR 3 HRS.
- MAXIMUM RECORDED TEMPERATURE FROM TTRM SUB IS 94.6 DEGC AT 2784.4 M
- MAXIMUM RECORDED DEVIATION IS 23.9 DEG AT 2173.605.
- TOOLSTRING RUN  A3 MRCH/EEJ/GR/CN/ZDL/MREX.
- CN/ZDL RECORDED SIMULTANEOUS BUT PRESENTED UNDER SEPARATE HEADINGS.
- ADDITIONAL MUD PROPERTIES: WHOLE MUD SALINITY = 31000 MG/L
CORRECTED SOLIDS = 24 %
YP = 16 LB/100FT2
PV = 25 CP
OIL/WATER RATIO 76/24
LOGGING PASS ABORTED DUE TO MREX COMMINUCATION ISSUES.
NO MREX DATA RECORDED.
DEPTH AUDIT:
- ALL DEPTHS ARE REFERENCED TO DRILL FLOOR.
- LOG TIED INTO RUN A1 DSL/ORIT/XMAC/WGI/HDIL DATED 30-MAR-2013.
- TOOLS ZEROED ON DRILL FLOOR AT TTRM WRM AT 18.04 M
GENERAL:
- LAST CIRCULATION ON 30-MAR-2013 AT 09:00 HRS FOR 3 HRS.
- MAXIMUM RECORDED TEMPERATURE FROM TTRM SUB IS 94.6 DEGC AT 2784.4 M
- MAXIMUM RECORDED DEVIATION IS 23.9 DEG AT 2173.605.
- TOOLSTRING RUN  A3 MRCH/EEJ/GR/CN/ZDL/MREX.
- CN/ZDL RECORDED SIMULTANEOUS BUT PRESENTED UNDER SEPARATE HEADINGS.
- ADDITIONAL MUD PROPERTIES: WHOLE MUD SALINITY = 31000 MG/L
CORRECTED SOLIDS = 24 %
YP = 16 LB/100FT2
PV = 25 CP
OIL/WATER RATIO 76/24
MREX:
- MREX LOGGED IN PP LIGHT OIL.
PARAMETERS USED : TW=11.1 SEC , VRES 0.6M AND AL=6.
DATA RECORDED IN TO PASSES, DUE TO OVERPULL ON THE TOOLSTRING.
DATA FILES SPLICED AT 2837.0M ON CUSTOMERS REQUEST.
#  Curve Data
~ASCII -----------------------------------------------------
# ...
 2793.00000   89.28200    8.91500 2548.93800   34.00400   33.11000   35.05700   35.89500 2793.00000  119.94900    -999.25    -999.25    -999.25    -999.25    -999.25    -999.25    4.39100   15.26400   15.74600  155.45100 5705.74400   88.13800    0.06000    2.44900    2.47400    2.44100    2.46600
 2793.12500   88.35300    8.71200 2779.30700   32.34600   31.69300   36.36200   37.00800 2793.12500  113.64700    -999.25    -999.25    -999.25    -999.25    -999.25    -999.25    2.78200   14.15700   14.63700  205.33500 5953.95800   88.28300    0.05800    2.46800    2.48900    2.46000    2.48100
 2793.25000   87.85300    8.60500 2954.49500   30.15800   29.63600   35.74800   36.27400 2793.25000  108.78700    -999.25    -999.25    -999.25    -999.25    -999.25    -999.25    2.57000   14.63200   15.10600  254.92400 6143.47900   88.74100    0.05600    2.46000    2.45700    2.45200    2.44900
 2793.37500   87.83900    8.64800 2994.69900   28.13500   27.58100   28.04400   28.63500 2793.37500  108.85100    -999.25    -999.25    -999.25    -999.25    -999.25    -999.25    3.03200   15.60000   16.07000  274.16500 6184.90300   89.12100    0.06600    2.44300    2.43600    2.43500    2.42800
 2793.50000   87.99800    8.80500 2941.95400   26.95100   26.25100   25.01500   25.71000 2793.50000  112.84400    -999.25    -999.25    -999.25    -999.25    -999.25    -999.25    4.66500   16.22300   16.69600  265.67200 6126.85800   89.22200    0.08400    2.43300    2.43900    2.42500    2.43100
 2793.62500   87.04900    9.00900 2860.48700   27.23300   26.33200   23.65700   24.53300 2793.62500  117.76500    -999.25    -999.25    -999.25    -999.25    -999.25    -999.25    7.11600   16.44000   16.91800  244.14300 6043.01800   89.06000    0.08700    2.42900    2.43500    2.42100    2.42700
 2793.75000   87.46300    9.11400 2773.49200   28.79700   27.76600   25.24700   26.22800 2793.75000  121.79800    -999.25    -999.25    -999.25    -999.25    -999.25    -999.25    7.88900   16.65700   17.13800  218.99900 5962.05300   88.81400    0.08300    2.42500    2.42900    2.41700    2.42000
 2793.87500   86.23800    9.06300 2685.10500   31.02700   30.00900   29.16200   30.16400 2793.87500  125.14000    -999.25    -999.25    -999.25    -999.25    -999.25    -999.25    7.50400   17.06300   17.53900  191.33100 5885.81600   88.63000    0.08200    2.41800    2.42100    2.41000    2.41300
 2794.00000   85.92400    8.94600 2605.20100   33.05900   32.14100   31.79400   32.68700 2794.00000  127.64700    -999.25    -999.25    -999.25    -999.25    -999.25    -999.25    8.55800   17.57500   18.04400  154.25700 5810.15300   88.60900    0.08700    2.40900    2.40300    2.40100    2.39500
 2794.12500   89.27100    8.94200 2533.59300   34.38300   33.45700   32.46500   33.40400 2794.12500  128.60200    -999.25    -999.25    -999.25    -999.25    -999.25    -999.25   10.19600   18.21100   18.67700  111.95800 5739.60800   88.67200    0.09900    2.39900    2.40700    2.39100    2.39900
 2794.25000   87.68200    9.08900 2466.29500   35.07000   33.97100   33.75100   34.85400 2794.25000  127.97700    -999.25    -999.25    -999.25    -999.25    -999.25    -999.25   11.26900   19.45100   19.91500   84.41600 5692.83800   88.82600    0.10000    2.37700    2.41100    2.36900    2.40300
 2794.37500   89.54800    9.30400 2422.76200   35.52900   34.18900   33.36000   34.74700 2794.37500  126.52100    -999.25    -999.25    -999.25    -999.25    -999.25    -999.25   11.42600   22.02900   22.48300   88.37000 5681.01400   89.10500    0.07500    2.33300    2.36900    2.32600    2.36100
 2794.50000   88.72800    9.53100 2423.80000   36.13000   34.53800   32.02700   33.60400 2794.50000  124.29600    -999.25    -999.25    -999.25    -999.25    -999.25    -999.25   10.94500   25.49000   25.92800  103.49900 5678.02900   89.46700    0.03700    2.27400    2.28000    2.26700    2.27200
 2794.62500   86.99900    9.80200 2450.24500   36.92800   35.04100   34.03100   35.92000 2794.62500  120.72400    -999.25    -999.25    -999.25    -999.25    -999.25    -999.25   10.52500   28.85900   29.28200   99.18000 5653.11300   89.65300    0.00800    2.21700    2.20200    2.20900    2.19500
 2794.75000   88.22800   10.13400 2441.48500   38.06700   35.82200   34.84900   37.17000 2794.75000  116.32000    -999.25    -999.25    -999.25    -999.25    -999.25    -999.25    9.11500   31.42800   31.84000   60.06800 5597.01800   89.48000   -0.00500    2.17300    2.16400    2.16600    2.15700
 2794.87500   87.39200   10.43200 2380.17100   40.24700   37.66200   33.65500   36.13900 2794.87500  112.35100    1.84100    0.70300   15.96900    2.54400   18.51300    0.00100    6.53300   33.46000   33.86400    0.74200 5529.93500   89.16500   -0.00500    2.13800    2.14700    2.13100    2.14000
 2795.00000   87.72000   10.53100 2310.85000   44.58000   41.82000   37.80100   40.48700 2795.00000  109.51200    1.74000    0.72600   16.57200    2.46600   19.03800    0.00100    5.64000   35.13500   35.52700  -56.32200 5477.35700   89.03400   -0.00100    2.10900    2.11100    2.10200    2.10400
 2795.12500   87.64600   10.41200 2301.67900   50.33300   47.67600   47.57900   50.18600 2795.12500  107.52200    1.69700    0.65500   16.96500    2.35200   19.31700    0.00100    6.48700   36.13800   36.51600  -68.11500 5476.03200   89.04100    0.00100    2.09200    2.07600    2.08600    2.07000
 2795.25000   87.80400   10.22200 2347.77000   54.46400   52.06300   53.47700   55.83900 2795.25000  106.18300    1.67600    0.54900   17.11000    2.22600   19.33500    0.00000    7.77100   36.07200   36.44400  -22.06900 5527.82900   88.83900   -0.00200    2.09300    2.07400    2.08700    2.06800
 2795.37500   87.86800   10.10900 2397.49300   54.33900   52.06400   54.91400   57.10300 2795.37500  106.11300    1.64500    0.47400   17.01500    2.11900   19.13500    0.00000    7.49800   34.87100   35.25100   47.56200 5589.77300   88.36200   -0.00200    2.11400    2.10700    2.10700    2.10100
 2795.50000   88.38300   10.07600 2405.73400   52.13700   49.86200   51.39600   53.64500 2795.50000  107.77300    1.62800    0.46700   16.80200    2.09500   18.89700    0.00000    5.98400   33.35100   33.74400   77.16200 5603.62200   88.08200    0.00700    2.14000    2.14800    2.13300    2.14100
 2795.62500   87.83900   10.07100 2373.13600   49.88500   47.59300   47.83800   50.12900 2795.62500  110.46400    1.66100    0.53200   16.56400    2.19300   18.75700    0.00000    5.65000   32.07400   32.47800   49.98100 5562.76100   88.20500    0.01300    2.16200    2.15800    2.15500    2.15100
 2795.75000   91.62800   10.09900 2321.18300   48.53900   46.20900   46.55600   48.89700 2795.75000  112.19800    1.77300    0.65300   16.40000    2.42600   18.82600    0.00100    7.56200   31.01300   31.42700   -9.75000 5500.97300   88.58700    0.02000    2.18000    2.17400    2.17300    2.16700
 2795.87500   85.98000   10.17700 2265.06800   48.10000   45.68400   45.82400   48.25600 2795.87500  112.11100    1.95200    0.76600   16.39400    2.71800   19.11200    0.00100   10.11300   29.87400   30.30100  -71.62200 5448.18800   88.85100    0.02800    2.19900    2.20700    2.19200    2.20000
 2796.00000   93.83400   10.25300 2212.71600   48.88100   46.38400   44.85000   47.35000 2796.00000  110.94700    2.13000    0.80100   16.61700    2.93100   19.54800    0.00100   11.23600   28.70700   29.14600 -123.81800 5415.48300   88.97200    0.02600    2.21900    2.22000    2.21200    2.21300
 2796.12500   88.22300   10.23900 2180.97500   50.78500   48.31300   45.75700   48.22300 2796.12500  110.48900    2.16500    0.72200   17.04800    2.88800   19.93600    0.00100   11.50500   28.09700   28.54000 -139.23700 5427.08800   89.13600    0.02400    2.23000    2.22800    2.22200    2.22100
 2796.25000   88.67700   10.15100 2177.40500   52.95100   50.60300   51.10400   53.43000 2796.25000  111.27300    2.01100    0.58800   17.52200    2.59900   20.12100    0.00100   10.43400   29.09700   29.52900 -116.59800 5477.15100   89.33900    0.03500    2.21200    2.25500    2.20500    2.24800
