~Version ---------------------------------------------------
VERS. 2.0 : CWLS log ASCII Standard -VERSION 2.0
WRAP.  NO : One line per frame
~Well ------------------------------------------------------
STRT.M            2772.75 : Starting Depth
STOP.M           2907.625 : Ending Depth
STEP.M              0.125 : Level Spacing
NULL.             -999.25 : Absent Value
COMP.            GDF SUEZ : Company
WELL.               L5-15 : Well
FLD .              L5 OIL : Field
LOC . LAT: 53 48'42.03" N : Location
PROV.    NOBLE PIET V EDE : Province
SRVC.         Baker ATLAS : Service Company
LIC .                     : License Number
DATE.         31-MAR-2013 : Log Date
UWI .                     : Unique Well ID
~Curve Information -----------------------------------------
DEPT  .M    99 995 99  1 : Depth
BHT   .DEGC 99 995 99  1 : Borehole temperature
CAL   .IN   70 280 99  1 : Caliper
CHT   .LBF  99 635 99  1 : Cable head tension
CN    .PU   42 890  1  1 : Compensated neutron porosity
CNC   .PU   42 995 99  1 : Borehole size corrected compensated neutron porosity
CNCQH .PU   42 995 99  1 : Borehole size corrected compensated neutron porosity
CNQH  .PU   42 890  1  1 : Compensated neutron porosity
DEPTH .M    99   1 99  1 : System depth
GR    .GAPI 30 310  1  1 : Gamma ray
MBVI  .PU   99 995 99  1 : MR irreducible fluids
MBVM  .PU   99 995 99  1 : MR moveable fluids
MCBW  .PU   99 995 99  1 : MR clay bound porosity fluids
MPHE  .PU   99 995 99  1 : MR effective porosity
MPHS  .PU   99 995 99  1 : MR total porosity
MPRM  .MD   99 995 99  1 : MR permeability
PEQH  .B/E  45 358  1  1 : Photo electric cross-section
PORZ  .PU   45 890 99  1 : Porosity for selectable matrix
PORZC .PU   99 995 99  1 : Corrected porosity
TEN   .LBF  99 635 99  1 : Differential tension
TTEN  .LBF  99 635 99  1 : Total tension
WTBH  .DEGC 99 995 99  1 : Temperature of borehole
ZCORQH.G/C3 45 356 99  1 : Density correction
ZDEN  .G/C3 45 350  1  1 : Formation bulk density
ZDENQH.G/C3 45 350  1  1 : Formation bulk density
ZDNC  .G/C3 94 995 99  1 : Borehole size/mud weight corrected density
ZDNCQH.G/C3 94 995 99  1 : Borehole size/mud weight corrected density
~Params ----------------------------------------------------
HID1.        GAMMA RAY LOG : Header Identifer
HID2.   MAGNETIC RESONANCE : Header Identifer
HID3.         EXPLORER LOG : Header Identifer
CLAB.             RIG NAME : County Label (Comments)
SLAB.              COUNTRY : State Label (Comments)
STAT.          NETHERLANDS : State Or Province
CMT1.          FIELD PRINT : Comment 1
FL1 .                  LON : 04 21'09.62"  E                     : Field Location 1
FL2 .                UTM N : : Field Location 2
FL3 .                UTM E : : Field Location 3
OS1 .     HDIL/XMAC ZDL/CN : Other Services Line 1
OS2 .                  DSL : Other Services Line 2
OS3 .                 GXPL : Other Services Line 3
OS4 .                  BHP : Other Services Line 4
OS5 .                  RCI : Other Services Line 5
PDAT.                  MSL : Permanent Datum
EPD .M                   0 : Elevation Of Perm. Datum
LMF .                   DF : Log Measured From
APD .M                47.5 : Above Permanent Datum
DMF .                   DF : Drilling Measured From
EKB .M                47.5 : Elevation Of Kelly Bushing
EDF .M                47.5 : Elevation Of Derrick Floor
EGL .M               -42.0 : Elevation Of Ground Level
TRIP.                    3 : Trip Number
SON .            13-163585 : Service Order Number
TDD .M              2915.0 : Total Depth - Driller
BLI .M              2880.0 : Bottom Log Interval
TLI .M              2790.0 : Top Log Interval
CSIZ.IN             18.625 : Casing Size
CBDR.M              1666.0 : Casing Bottom - Driller
BS  .IN              8.375 : Bit Size
DFT .                LTOBM : Drilling Fluid Type
DFD .G/C3             1.51 : Drilling Fluid Density
DFV .S                  25 : Drilling Fluid Viscosity
DFL .C3                1.2 : Drilling Fluid Loss
MSS .             FLOWLINE : Mud Sample Source
RMS .OHMM              >10 : Resistivity Of Mud Sample
RMFS.OHMM              >10 : Resistivity Of Mud Filtrate Sample
RMCS.OHMM              >10 : Resistivity Of Mud Cake Sample
MFSS.                   NA : Mud Filtrate Sample Source
MCSS.                   NA : Mud Cake Sample Source
RMB .OHMM              >10 : Mud Resistivity At Bht
TSC .             20.6 HRS : Time Since Circulation
MRT .DEGC             94.6 : Maximum Recorded Temperature
LUN .                 8934 : Logging Unit Number
LUL .           DEN HELDER : Logging Unit Location
ENGI. A. WIEFKERS/M. HEKEL : Engineer's Name
WITN.         P. GERRITSEN : Witness' Name
TSTR.       /GR/MREX/MREX/ : Title Service Mnemonic
TSTG.                   NA : Title Service Mnemonic
STUS.                FINAL : Status
LCNM.          BAKER ATLAS : Logging Company Name
LCC .                  150 : Logging Company Code
OPMD.              OH.WIRE : Operation Mode
PANA. A. WIEFKERS/M. HEKEL : Processing Analyst
PCON.          BAKER ATLAS : Processing Contractor
DATE.          31-MAR-2013 : Date As Month-Day-Year
TRIP.                    4 : Trip Number
SON .            13-163585 : Service Order Number
TDD .M              2915.0 : Total Depth - Driller
BLI .M              2897.6 : Bottom Log Interval
TLI .M              2779.0 : Top Log Interval
CSIZ.IN             18.625 : Casing Size
CBDR.M              1666.0 : Casing Bottom - Driller
BS  .IN              8.375 : Bit Size
DFT .                LTOBM : Drilling Fluid Type
DFD .G/C3             1.51 : Drilling Fluid Density
DFV .S                  25 : Drilling Fluid Viscosity
DFL .C3                1.2 : Drilling Fluid Loss
MSS .             FLOWLINE : Mud Sample Source
RMS .OHMM              >10 : Resistivity Of Mud Sample
RMFS.OHMM              >10 : Resistivity Of Mud Filtrate Sample
RMCS.OHMM              >10 : Resistivity Of Mud Cake Sample
MFSS.                   NA : Mud Filtrate Sample Source
MCSS.                   NA : Mud Cake Sample Source
RMB .OHMM              >10 : Mud Resistivity At Bht
TSC .             29.4 HRS : Time Since Circulation
MRT .DEGC             94.2 : Maximum Recorded Temperature
LUN .                 8934 : Logging Unit Number
LUL .           DEN HELDER : Logging Unit Location
ENGI. A. WIEFKERS/M. HEKEL : Engineer's Name
WITN.         P. GERRITSEN : Witness' Name
APIN.                      : API Serial Number
~Other -----------------------------------------------------
DEPTH AUDIT:
- ALL DEPTHS ARE REFERENCED TO DRILL FLOOR.
- LOG TIED INTO RUN A1 DSL/ORIT/XMAC/WGI/HDIL DATED 30-MAR-2013.
- TOOLS ZEROED ON DRILL FLOOR AT TTRM WRM AT 18.04 M.
GENERAL:
- LAST CIRCULATION ON 30-MAR-2013 AT 09:00 HRS FOR 3 HRS.
- MAXIMUM RECORDED TEMPERATURE FROM TTRM SUB IS 94.6 DEGC AT 2784.4 M
- MAXIMUM RECORDED DEVIATION IS 23.9 DEG AT 2173.605.
- TOOLSTRING RUN  A3 MRCH/EEJ/GR/CN/ZDL/MREX.
- CN/ZDL RECORDED SIMULTANEOUS BUT PRESENTED UNDER SEPARATE HEADINGS.
- ADDITIONAL MUD PROPERTIES: WHOLE MUD SALINITY = 31000 MG/L
CORRECTED SOLIDS = 24 %
YP = 16 LB/100FT2
PV = 25 CP
OIL/WATER RATIO 76/24
LOGGING PASS ABORTED DUE TO MREX COMMINUCATION ISSUES.
NO MREX DATA RECORDED.
DEPTH AUDIT:
- ALL DEPTHS ARE REFERENCED TO DRILL FLOOR.
- LOG TIED INTO RUN A1 DSL/ORIT/XMAC/WGI/HDIL DATED 30-MAR-2013.
- TOOLS ZEROED ON DRILL FLOOR AT TTRM WRM AT 18.04 M
GENERAL:
- LAST CIRCULATION ON 30-MAR-2013 AT 09:00 HRS FOR 3 HRS.
- MAXIMUM RECORDED TEMPERATURE FROM TTRM SUB IS 94.6 DEGC AT 2784.4 M
- MAXIMUM RECORDED DEVIATION IS 23.9 DEG AT 2173.605.
- TOOLSTRING RUN  A3 MRCH/EEJ/GR/CN/ZDL/MREX.
- CN/ZDL RECORDED SIMULTANEOUS BUT PRESENTED UNDER SEPARATE HEADINGS.
- ADDITIONAL MUD PROPERTIES: WHOLE MUD SALINITY = 31000 MG/L
CORRECTED SOLIDS = 24 %
YP = 16 LB/100FT2
PV = 25 CP
OIL/WATER RATIO 76/24
MREX:
- MREX LOGGED IN PP LIGHT OIL.
PARAMETERS USED : TW=11.1 SEC , VRES 0.6M AND AL=6.
DATA RECORDED IN TO PASSES, DUE TO OVERPULL ON THE TOOLSTRING.
DATA FILES SPLICED AT 2837.0M ON CUSTOMERS REQUEST.
#  Curve Data
~ASCII -----------------------------------------------------
# ...
 2830.12500   90.34500    9.47400 2158.20700   38.34300   36.77900   39.17500   40.76100 2830.12500  117.33800    0.99800    0.24600   14.56600    1.24400   15.81000    0.00000   10.06400   16.67800   17.16900    8.63200 5404.40800   91.03400    0.07500    2.42500    2.43800    2.41600    2.42900
 2830.25000   91.16600    9.40300 2157.34000   36.83300   35.36700   36.38300   37.83700 2830.25000  120.42400    1.05800    0.23800   14.45500    1.29600   15.75100    0.00000    8.76600   15.76300   16.25700   10.77000 5404.85800   90.59800    0.07200    2.44000    2.44600    2.43200    2.43800
 2830.37500   90.22400    9.30100 2148.06700   35.43900   34.10400   34.93500   36.28000 2830.37500  122.86300    1.10500    0.21100   14.33900    1.31600   15.65500    0.00000    7.34700   15.46600   15.95800   -4.66100 5388.81800   90.18800    0.07000    2.44600    2.44300    2.43700    2.43400
 2830.50000   89.68500    9.23100 2144.08200   34.50200   33.25600   34.00800   35.25300 2830.50000  122.91300    1.24400    0.16200   14.18000    1.40600   15.58700    0.00000    7.92000   15.28600   15.77800  -27.84300 5368.25400   90.02600    0.06900    2.44900    2.44400    2.44000    2.43600
 2830.62500   90.58900    9.21500 2154.22200   33.88300   32.66300   33.24000   34.47100 2830.62500  121.26800    1.50100    0.10700   13.95300    1.60800   15.56100    0.00000    9.37500   14.84400   15.33600  -37.66800 5363.15300   90.10200    0.06800    2.45600    2.45100    2.44800    2.44300
 2830.75000   90.91200    9.23600 2178.52300   33.73200   32.49200   32.18800   33.42400 2830.75000  119.16900    1.80500    0.05700   13.66600    1.86100   15.52800    0.00000   10.57800   14.05400   14.55100  -24.00100 5381.38500   90.30700    0.07200    2.47000    2.46500    2.46100    2.45700
 2830.87500   88.62000    9.24800 2214.06700   34.38300   33.12000   32.41400   33.66400 2830.87500  117.21300    1.99400    0.02200   13.45100    2.01600   15.46700    0.00000   11.04100   13.03700   13.53900   10.56200 5417.25000   90.52300    0.08200    2.48700    2.48200    2.47800    2.47400
 2831.00000   90.67600    9.20100 2242.92900   35.96400   34.73200   34.29600   35.50700 2831.00000  115.22600    1.96600    0.00500   13.43800    1.97100   15.40900    0.00000    9.78700   12.37500   12.87900   41.61000 5445.33300   90.75200    0.09600    2.49800    2.50800    2.49000    2.50000
 2831.12500   90.61700    9.09400 2246.74100   38.40600   37.27400   34.50000   35.59900 2831.12500  113.52500    1.73300    0.00100   13.71200    1.73400   15.44500    0.00000    8.19100   13.00700   13.50500   46.96700 5444.53500   91.03100    0.10600    2.48800    2.52200    2.47900    2.51400
 2831.25000   91.01400    9.05100 2232.36600   41.15600   40.06600   37.60600   38.70000 2831.25000  113.15400    1.45500    0.01400   14.25700    1.46900   15.72600    0.00000    8.64700   15.68100   16.16400   31.00200 5422.35100   91.24400    0.10100    2.44200    2.48900    2.43400    2.48100
 2831.37500   92.52300    9.18800 2225.09600   43.62700   42.36700   39.91800   41.20700 2831.37500  114.69400    1.25900    0.05600   14.93100    1.31600   16.24600    0.00000   10.12200   19.63700   20.10300   15.26300 5401.53600   91.29600    0.07700    2.37400    2.39900    2.36600    2.39100
 2831.50000   90.90100    9.49100 2231.39700   45.26700   43.63700   40.73900   42.41000 2831.50000  117.66400    1.19700    0.13500   15.56400    1.33200   16.89600    0.00000   10.32300   23.44400   23.89500   11.00200 5392.54500   91.18400    0.05200    2.30900    2.30000    2.30100    2.29300
 2831.62500   92.29500    9.75900 2228.66600   45.57500   43.63000   44.64800   46.65300 2831.62500  120.10500    1.22600    0.23000   16.02300    1.45600   17.47900    0.00000    9.57100   25.70700   26.15200   13.82800 5389.78900   90.98200    0.04100    2.27000    2.24600    2.26300    2.23900
 2831.75000   90.70800    9.88100 2206.13600   44.61000   42.53100   45.56500   47.65100 2831.75000  120.64700    1.28400    0.31600   16.33100    1.60000   17.93100    0.00000    9.42200   26.05500   26.50100   13.83400 5384.18700   90.79800    0.04300    2.26400    2.24700    2.25700    2.24000
 2831.87500   90.80200    9.88700 2184.18100   42.89600   40.82400   41.92900   44.00900 2831.87500  119.03400    1.35400    0.37700   16.55600    1.73100   18.28700    0.00000   10.34000   24.38300   24.84100    9.55700 5375.98700   90.79600    0.04400    2.29300    2.27400    2.28500    2.26700
 2832.00000   91.50200    9.89400 2181.23100   41.22700   39.16700   40.82900   42.91600 2832.00000  116.88500    1.46500    0.40800   16.69200    1.87300   18.56500    0.00000   11.10100   21.22300   21.70100   10.48700 5373.99400   90.96400    0.05200    2.34700    2.33100    2.33900    2.32300
 2832.12500   92.18700    9.92400 2187.95100   39.50100   37.43600   40.63000   42.74100 2832.12500  115.61500    1.65100    0.40200   16.67600    2.05300   18.72900    0.00000   11.27300   17.06500   17.56700   19.71900 5379.16600   91.15300    0.06400    2.41800    2.41500    2.41000    2.40600
 2832.25000   91.82100    9.90900 2186.18700   37.68100   35.66800   37.51400   39.55100 2832.25000  116.26900    1.92300    0.35900   16.46600    2.28200   18.74800    0.00000   10.91500   13.13700   13.65600   33.68300 5386.36600   91.09700    0.07200    2.48500    2.51600    2.47600    2.50700
 2832.37500   90.16300    9.77800 2169.65500   36.23900   34.39000   35.00300   36.82600 2832.37500  118.19600    2.23200    0.29900   16.12900    2.53100   18.66000    0.00000    9.21900   11.06400   11.58700   39.98800 5385.18800   90.91900    0.06000    2.52100    2.56300    2.51200    2.55400
 2832.50000   90.96400    9.52600 2144.31300   35.56100   33.98400   34.02300   35.58600 2832.50000  120.14200    2.54600    0.23500   15.67300    2.78100   18.45400    0.00000    7.55700   11.45300   11.97000   34.67200 5374.30900   90.85500    0.04200    2.51400    2.52400    2.50500    2.51500
 2832.62500   92.37600    9.28700 2121.54900   35.43500   34.11500   34.41300   35.68100 2832.62500  120.71200    2.83600    0.17300   15.09400    3.00900   18.10400    0.00000    7.28700   12.93900   13.44300   23.27700 5360.73600   90.96400    0.04300    2.48900    2.47500    2.48000    2.46700
 2832.75000   92.21600    9.18700 2107.00900   34.84300   33.63900   35.23800   36.46100 2832.75000  120.15200    3.07400    0.12100   14.44100    3.19500   17.63500    0.00000    7.55100   13.90000   14.39600    7.64200 5345.47900   91.08900    0.05300    2.47200    2.46700    2.46400    2.45800
 2832.87500   91.56100    9.19900 2101.50200   32.89500   31.70700   35.22500   36.46400 2832.87500  119.09700    3.23300    0.09200   13.68400    3.32400   17.00800    0.00000    6.80800   13.91600   14.41300  -12.23700 5328.49600   91.19000    0.05400    2.47200    2.47000    2.46400    2.46200
 2833.00000   90.61100    9.16700 2100.75300   30.16000   29.05200   31.70400   32.83200 2833.00000  117.46400    3.35900    0.09200   12.70000    3.45200   16.15200    0.00000    6.38500   13.34800   13.84700  -26.35900 5319.84900   91.34500    0.05300    2.48200    2.47600    2.47300    2.46800
 2833.12500   89.35700    9.03900 2103.36600   27.53100   26.59500   27.91800   28.86400 2833.12500  114.26100    3.55900    0.11700   11.45000    3.67600   15.12600    0.00000    6.26300   12.50500   13.00400  -31.21800 5321.87800   91.56600    0.06000    2.49600    2.49100    2.48800    2.48300
 2833.25000   90.70900    8.85800 2110.13100   24.97100   24.24900   27.45700   28.19900 2833.25000  108.18100    3.95700    0.15900    9.95500    4.11600   14.07100    0.00000    5.90200   11.40400   11.90200  -31.32900 5328.70100   91.72800    0.06900    2.51500    2.51400    2.50600    2.50600
 2833.37500   91.35300    8.66700 2118.83300   22.31500   21.80200   25.60700   26.11600 2833.37500  100.02700    4.56000    0.20800    8.36800    4.76800   13.13600    0.00000    5.68100   10.18900   10.68700  -32.30200 5333.88800   91.64600    0.07600    2.53600    2.54100    2.52700    2.53200
