~Version ---------------------------------------------------
VERS. 2.0 : CWLS log ASCII Standard -VERSION 2.0
WRAP.  NO : One line per frame
~Well ------------------------------------------------------
STRT.M            2772.75 : Starting Depth
STOP.M           2907.625 : Ending Depth
STEP.M              0.125 : Level Spacing
NULL.             -999.25 : Absent Value
COMP.            GDF SUEZ : Company
WELL.               L5-15 : Well
FLD .              L5 OIL : Field
LOC . LAT: 53 48'42.03" N : Location
PROV.    NOBLE PIET V EDE : Province
SRVC.         Baker ATLAS : Service Company
LIC .                     : License Number
DATE.         31-MAR-2013 : Log Date
UWI .                     : Unique Well ID
~Curve Information -----------------------------------------
DEPT  .M    99 995 99  1 : Depth
BHT   .DEGC 99 995 99  1 : Borehole temperature
CAL   .IN   70 280 99  1 : Caliper
CHT   .LBF  99 635 99  1 : Cable head tension
CN    .PU   42 890  1  1 : Compensated neutron porosity
CNC   .PU   42 995 99  1 : Borehole size corrected compensated neutron porosity
CNCQH .PU   42 995 99  1 : Borehole size corrected compensated neutron porosity
CNQH  .PU   42 890  1  1 : Compensated neutron porosity
DEPTH .M    99   1 99  1 : System depth
GR    .GAPI 30 310  1  1 : Gamma ray
MBVI  .PU   99 995 99  1 : MR irreducible fluids
MBVM  .PU   99 995 99  1 : MR moveable fluids
MCBW  .PU   99 995 99  1 : MR clay bound porosity fluids
MPHE  .PU   99 995 99  1 : MR effective porosity
MPHS  .PU   99 995 99  1 : MR total porosity
MPRM  .MD   99 995 99  1 : MR permeability
PEQH  .B/E  45 358  1  1 : Photo electric cross-section
PORZ  .PU   45 890 99  1 : Porosity for selectable matrix
PORZC .PU   99 995 99  1 : Corrected porosity
TEN   .LBF  99 635 99  1 : Differential tension
TTEN  .LBF  99 635 99  1 : Total tension
WTBH  .DEGC 99 995 99  1 : Temperature of borehole
ZCORQH.G/C3 45 356 99  1 : Density correction
ZDEN  .G/C3 45 350  1  1 : Formation bulk density
ZDENQH.G/C3 45 350  1  1 : Formation bulk density
ZDNC  .G/C3 94 995 99  1 : Borehole size/mud weight corrected density
ZDNCQH.G/C3 94 995 99  1 : Borehole size/mud weight corrected density
~Params ----------------------------------------------------
HID1.        GAMMA RAY LOG : Header Identifer
HID2.   MAGNETIC RESONANCE : Header Identifer
HID3.         EXPLORER LOG : Header Identifer
CLAB.             RIG NAME : County Label (Comments)
SLAB.              COUNTRY : State Label (Comments)
STAT.          NETHERLANDS : State Or Province
CMT1.          FIELD PRINT : Comment 1
FL1 .                  LON : 04 21'09.62"  E                     : Field Location 1
FL2 .                UTM N : : Field Location 2
FL3 .                UTM E : : Field Location 3
OS1 .     HDIL/XMAC ZDL/CN : Other Services Line 1
OS2 .                  DSL : Other Services Line 2
OS3 .                 GXPL : Other Services Line 3
OS4 .                  BHP : Other Services Line 4
OS5 .                  RCI : Other Services Line 5
PDAT.                  MSL : Permanent Datum
EPD .M                   0 : Elevation Of Perm. Datum
LMF .                   DF : Log Measured From
APD .M                47.5 : Above Permanent Datum
DMF .                   DF : Drilling Measured From
EKB .M                47.5 : Elevation Of Kelly Bushing
EDF .M                47.5 : Elevation Of Derrick Floor
EGL .M               -42.0 : Elevation Of Ground Level
TRIP.                    3 : Trip Number
SON .            13-163585 : Service Order Number
TDD .M              2915.0 : Total Depth - Driller
BLI .M              2880.0 : Bottom Log Interval
TLI .M              2790.0 : Top Log Interval
CSIZ.IN             18.625 : Casing Size
CBDR.M              1666.0 : Casing Bottom - Driller
BS  .IN              8.375 : Bit Size
DFT .                LTOBM : Drilling Fluid Type
DFD .G/C3             1.51 : Drilling Fluid Density
DFV .S                  25 : Drilling Fluid Viscosity
DFL .C3                1.2 : Drilling Fluid Loss
MSS .             FLOWLINE : Mud Sample Source
RMS .OHMM              >10 : Resistivity Of Mud Sample
RMFS.OHMM              >10 : Resistivity Of Mud Filtrate Sample
RMCS.OHMM              >10 : Resistivity Of Mud Cake Sample
MFSS.                   NA : Mud Filtrate Sample Source
MCSS.                   NA : Mud Cake Sample Source
RMB .OHMM              >10 : Mud Resistivity At Bht
TSC .             20.6 HRS : Time Since Circulation
MRT .DEGC             94.6 : Maximum Recorded Temperature
LUN .                 8934 : Logging Unit Number
LUL .           DEN HELDER : Logging Unit Location
ENGI. A. WIEFKERS/M. HEKEL : Engineer's Name
WITN.         P. GERRITSEN : Witness' Name
TSTR.       /GR/MREX/MREX/ : Title Service Mnemonic
TSTG.                   NA : Title Service Mnemonic
STUS.                FINAL : Status
LCNM.          BAKER ATLAS : Logging Company Name
LCC .                  150 : Logging Company Code
OPMD.              OH.WIRE : Operation Mode
PANA. A. WIEFKERS/M. HEKEL : Processing Analyst
PCON.          BAKER ATLAS : Processing Contractor
DATE.          31-MAR-2013 : Date As Month-Day-Year
TRIP.                    4 : Trip Number
SON .            13-163585 : Service Order Number
TDD .M              2915.0 : Total Depth - Driller
BLI .M              2897.6 : Bottom Log Interval
TLI .M              2779.0 : Top Log Interval
CSIZ.IN             18.625 : Casing Size
CBDR.M              1666.0 : Casing Bottom - Driller
BS  .IN              8.375 : Bit Size
DFT .                LTOBM : Drilling Fluid Type
DFD .G/C3             1.51 : Drilling Fluid Density
DFV .S                  25 : Drilling Fluid Viscosity
DFL .C3                1.2 : Drilling Fluid Loss
MSS .             FLOWLINE : Mud Sample Source
RMS .OHMM              >10 : Resistivity Of Mud Sample
RMFS.OHMM              >10 : Resistivity Of Mud Filtrate Sample
RMCS.OHMM              >10 : Resistivity Of Mud Cake Sample
MFSS.                   NA : Mud Filtrate Sample Source
MCSS.                   NA : Mud Cake Sample Source
RMB .OHMM              >10 : Mud Resistivity At Bht
TSC .             29.4 HRS : Time Since Circulation
MRT .DEGC             94.2 : Maximum Recorded Temperature
LUN .                 8934 : Logging Unit Number
LUL .           DEN HELDER : Logging Unit Location
ENGI. A. WIEFKERS/M. HEKEL : Engineer's Name
WITN.         P. GERRITSEN : Witness' Name
APIN.                      : API Serial Number
~Other -----------------------------------------------------
DEPTH AUDIT:
- ALL DEPTHS ARE REFERENCED TO DRILL FLOOR.
- LOG TIED INTO RUN A1 DSL/ORIT/XMAC/WGI/HDIL DATED 30-MAR-2013.
- TOOLS ZEROED ON DRILL FLOOR AT TTRM WRM AT 18.04 M.
GENERAL:
- LAST CIRCULATION ON 30-MAR-2013 AT 09:00 HRS FOR 3 HRS.
- MAXIMUM RECORDED TEMPERATURE FROM TTRM SUB IS 94.6 DEGC AT 2784.4 M
- MAXIMUM RECORDED DEVIATION IS 23.9 DEG AT 2173.605.
- TOOLSTRING RUN  A3 MRCH/EEJ/GR/CN/ZDL/MREX.
- CN/ZDL RECORDED SIMULTANEOUS BUT PRESENTED UNDER SEPARATE HEADINGS.
- ADDITIONAL MUD PROPERTIES: WHOLE MUD SALINITY = 31000 MG/L
CORRECTED SOLIDS = 24 %
YP = 16 LB/100FT2
PV = 25 CP
OIL/WATER RATIO 76/24
LOGGING PASS ABORTED DUE TO MREX COMMINUCATION ISSUES.
NO MREX DATA RECORDED.
DEPTH AUDIT:
- ALL DEPTHS ARE REFERENCED TO DRILL FLOOR.
- LOG TIED INTO RUN A1 DSL/ORIT/XMAC/WGI/HDIL DATED 30-MAR-2013.
- TOOLS ZEROED ON DRILL FLOOR AT TTRM WRM AT 18.04 M
GENERAL:
- LAST CIRCULATION ON 30-MAR-2013 AT 09:00 HRS FOR 3 HRS.
- MAXIMUM RECORDED TEMPERATURE FROM TTRM SUB IS 94.6 DEGC AT 2784.4 M
- MAXIMUM RECORDED DEVIATION IS 23.9 DEG AT 2173.605.
- TOOLSTRING RUN  A3 MRCH/EEJ/GR/CN/ZDL/MREX.
- CN/ZDL RECORDED SIMULTANEOUS BUT PRESENTED UNDER SEPARATE HEADINGS.
- ADDITIONAL MUD PROPERTIES: WHOLE MUD SALINITY = 31000 MG/L
CORRECTED SOLIDS = 24 %
YP = 16 LB/100FT2
PV = 25 CP
OIL/WATER RATIO 76/24
MREX:
- MREX LOGGED IN PP LIGHT OIL.
PARAMETERS USED : TW=11.1 SEC , VRES 0.6M AND AL=6.
DATA RECORDED IN TO PASSES, DUE TO OVERPULL ON THE TOOLSTRING.
DATA FILES SPLICED AT 2837.0M ON CUSTOMERS REQUEST.
#  Curve Data
~ASCII -----------------------------------------------------
# ...
 2799.75000   87.42800    9.41400 2127.54400   37.10900   35.62700   35.63500   37.11500 2799.75000  112.98300    0.53600    0.08700   13.64400    0.62300   14.26600    0.00000    8.26800   13.14400   13.65000  -76.31100 5310.08300   89.63000    0.07800    2.48500    2.46500    2.47700    2.45600
 2799.87500   88.72800    9.38000 2127.43800   36.53600   35.09900   35.08800   36.52000 2799.87500  114.88900    0.53800    0.05100   13.89900    0.58900   14.48900    0.00000    8.89500   15.89600   16.38900  -92.89000 5310.16200   89.12500    0.07400    2.43800    2.41400    2.43000    2.40600
 2800.00000   88.03500    9.37600 2147.40800   35.48800   34.07100   33.27300   34.68100 2800.00000  116.88300    0.72500    0.05000   14.13800    0.77500   14.91300    0.00000   10.11600   16.38000   16.87000  -95.75200 5325.48400   88.93600    0.07200    2.43000    2.41100    2.42200    2.40200
 2800.12500   87.73000    9.40800 2169.97700   34.62600   33.19000   32.89000   34.32200 2800.12500  118.87900    1.02300    0.07200   14.39100    1.09500   15.48700    0.00000   10.57600   15.40300   15.89900  -90.40600 5348.87500   89.00500    0.07200    2.44700    2.44400    2.43800    2.43600
 2800.25000   86.86200    9.44600 2184.96000   33.99600   32.53200   32.87000   34.34600 2800.25000  120.62000    1.28400    0.10900   14.64200    1.39300   16.03500    0.00000   10.18000   14.15100   14.65400  -82.24500 5374.59900   89.30200    0.07100    2.46800    2.48200    2.45900    2.47300
 2800.37500   88.03900    9.44000 2202.85900   33.16300   31.72200   32.39400   33.83900 2800.37500  121.29600    1.40800    0.15000   14.86100    1.55800   16.41800    0.00000    9.62400   13.14300   13.65000  -54.57400 5417.58400   89.52700    0.05900    2.48500    2.47900    2.47700    2.47000
 2800.50000   85.35500    9.37500 2227.07000   32.27100   30.91400   31.82000   33.19300 2800.50000  120.02500    1.41600    0.19300   15.03200    1.60900   16.64100    0.00000    9.22200   12.06700   12.57700    4.49900 5484.65500   89.48200    0.05400    2.50400    2.48000    2.49500    2.47100
 2800.62500   86.49900    9.26000 2237.90200   31.69200   30.46200   30.70500   31.90800 2800.62500  116.80100    1.44000    0.23000   15.11000    1.67000   16.78000    0.00000    9.47100   10.69700   11.20900   71.15800 5545.81500   89.25600    0.06700    2.52700    2.53200    2.51800    2.52300
 2800.75000   88.29200    9.12100 2222.65500   31.33000   30.24800   30.93600   32.00600 2800.75000  113.91500    1.57600    0.25400   15.08100    1.83000   16.91100    0.00000    9.65200    9.91300   10.42500   99.28200 5559.40200   89.14200    0.07200    2.54000    2.56400    2.53200    2.55500
 2800.87500   87.66400    8.98600 2199.78100   31.04100   30.10400   30.48300   31.41600 2800.87500  113.48100    1.79700    0.27100   14.97100    2.06800   17.03900    0.00000    9.84500   10.68400   11.18900   72.26100 5516.81400   89.29000    0.07400    2.52700    2.55200    2.51900    2.54400
 2801.00000   87.92500    8.89800 2200.77400   30.81600   29.97300   29.36100   30.17800 2801.00000  116.03300    1.98000    0.28600   14.79300    2.26600   17.05900    0.00000   10.52700   12.53300   13.02800   20.22800 5456.20800   89.56700    0.08200    2.49600    2.51000    2.48700    2.50200
 2801.12500   88.74500    8.86200 2220.81700   30.79500   29.99100   29.98200   30.78500 2801.12500  119.59200    2.08800    0.29000   14.52600    2.37900   16.90500    0.00000   10.29800   13.76400   14.25200  -19.79200 5414.78600   89.74800    0.07900    2.47500    2.45700    2.46600    2.44800
 2801.25000   88.66500    8.84800 2242.39600   31.07800   30.28600   30.79100   31.58700 2801.25000  121.99700    2.16400    0.26300   14.14500    2.42700   16.57200    0.00000    7.94700   13.06200   13.55200  -33.83800 5404.05100   89.71200    0.07100    2.48700    2.45800    2.47800    2.45000
 2801.37500   89.45500    8.81600 2260.79200   31.45400   30.69300   31.10100   31.85300 2801.37500  122.20900    2.25900    0.21200   13.71300    2.47000   16.18300    0.00000    6.79500   10.39700   10.89900  -26.38400 5415.44100   89.65300    0.06600    2.53200    2.52200    2.52400    2.51300
 2801.50000   89.75500    8.78400 2279.08700   31.74400   31.01500   31.56500   32.29800 2801.50000  121.25700    2.40100    0.17000   13.32100    2.57100   15.89200    0.00000    7.87000    7.29200    7.80600   -6.60200 5436.98900   89.79700    0.06600    2.58500    2.59700    2.57700    2.58800
 2801.62500   88.53300    8.81200 2293.34600   31.98100   31.22000   31.31100   32.08300 2801.62500  121.07900    2.63000    0.17300   13.04500    2.80300   15.84900    0.00000    8.08200    6.78200    7.29800   17.27200 5458.97400   90.05000    0.08000    2.59400    2.64500    2.58500    2.63600
 2801.75000   88.67900    8.90300 2297.69700   32.56400   31.69800   30.43400   31.31300 2801.75000  122.53900    2.91400    0.23200   12.92900    3.14600   16.07500    0.00000    8.12600   10.76500   11.26700   29.52100 5467.24100   90.15100    0.09400    2.52600    2.62100    2.51700    2.61200
 2801.87500   88.32200    9.00600 2289.88800   33.77000   32.77800   30.89200   31.86200 2801.87400  124.64500    3.15000    0.36200   13.00700    3.51200   16.51900    0.00000    9.12000   17.42700   17.89900   18.76200 5453.26400   90.32000    0.07000    2.41200    2.47800    2.40400    2.47000
 2802.00000   88.39600    9.09900 2269.34000   35.56700   34.45200   32.25700   33.36600 2802.00000  125.64100    3.23800    0.58000   13.33400    3.81700   17.15100    0.00100   10.63700   23.33400   23.77300  -11.59000 5423.83900   90.95200    0.02100    2.31100    2.28800    2.30300    2.28100
 2802.12500   87.63200    9.21000 2247.97100   37.54800   36.28800   34.17900   35.44200 2802.12500  125.05000    3.21700    0.81200   13.84100    4.02900   17.86900    0.00200   11.89500   26.77900   27.19600  -33.89200 5406.74000   91.49500    0.00600    2.25200    2.21000    2.24500    2.20300
 2802.25000   94.40000    9.35200 2229.20600   39.69200   38.24900   34.52800   35.93300 2802.25000  123.35400    3.14300    0.98900   14.48300    4.13200   18.61500    0.00300   12.20400   28.22400   28.63600  -26.71700 5420.98600   91.25200    0.02800    2.22700    2.23100    2.22000    2.22400
 2802.37500   87.99400    9.47400 2199.30000   41.80400   40.20500   38.77100   40.38600 2802.37500  121.41800    3.04000    1.06700   15.16900    4.10800   19.27600    0.00400   11.95900   29.07900   29.48800    3.39300 5454.80700   90.22300    0.04000    2.21300    2.24200    2.20600    2.23500
 2802.50000   87.99800    9.52800 2154.65400   43.46900   41.79800   41.99600   43.66900 2802.50000  119.90400    2.91900    1.07600   15.74700    3.99500   19.74200    0.00400   12.00400   30.23900   30.64000   23.37400 5473.40900   89.39300    0.01800    2.19300    2.20500    2.18600    2.19800
 2802.62500   89.08500    9.52800 2117.49700   44.67200   42.99900   41.29600   42.96400 2802.62500  119.30900    2.80400    1.03100   16.08700    3.83500   19.92200    0.00300   12.32200   31.43100   31.82200   14.92100 5461.18600   89.24700   -0.01600    2.17300    2.15500    2.16600    2.14900
 2802.75000   88.63100    9.52600 2122.65800   46.21100   44.54100   43.43100   45.10600 2802.75000  119.90100    2.72300    0.93400   16.16100    3.65700   19.81800    0.00200   12.05500   31.87900   32.26600   -8.18200 5437.37100   89.33400   -0.02600    2.16500    2.13700    2.15800    2.13000
 2802.87500   89.23600    9.55600 2168.63500   47.02400   45.31900   46.50800   48.21200 2802.87500  121.25500    2.65900    0.79100   16.08300    3.45000   19.53300    0.00200   10.72500   31.12200   31.51600  -17.64700 5430.72300   89.29100   -0.00400    2.17800    2.15300    2.17100    2.14600
 2803.00000   90.94300    9.62000 2227.44200   44.75500   42.97400   50.28800   52.03400 2803.00000  122.43200    2.57300    0.61800   15.97800    3.19200   19.16900    0.00100    9.70500   28.42800   28.84700   -3.38200 5447.40700   89.48300    0.03100    2.22400    2.20300    2.21700    2.19600
