~Version ---------------------------------------------------
VERS. 2.0 : CWLS log ASCII Standard -VERSION 2.0
WRAP.  NO : One line per frame
~Well ------------------------------------------------------
STRT.M            2772.75 : Starting Depth
STOP.M           2907.625 : Ending Depth
STEP.M              0.125 : Level Spacing
NULL.             -999.25 : Absent Value
COMP.            GDF SUEZ : Company
WELL.               L5-15 : Well
FLD .              L5 OIL : Field
LOC . LAT: 53 48'42.03" N : Location
PROV.    NOBLE PIET V EDE : Province
SRVC.         Baker ATLAS : Service Company
LIC .                     : License Number
DATE.         31-MAR-2013 : Log Date
UWI .                     : Unique Well ID
~Curve Information -----------------------------------------
DEPT  .M    99 995 99  1 : Depth
BHT   .DEGC 99 995 99  1 : Borehole temperature
CAL   .IN   70 280 99  1 : Caliper
CHT   .LBF  99 635 99  1 : Cable head tension
CN    .PU   42 890  1  1 : Compensated neutron porosity
CNC   .PU   42 995 99  1 : Borehole size corrected compensated neutron porosity
CNCQH .PU   42 995 99  1 : Borehole size corrected compensated neutron porosity
CNQH  .PU   42 890  1  1 : Compensated neutron porosity
DEPTH .M    99   1 99  1 : System depth
GR    .GAPI 30 310  1  1 : Gamma ray
MBVI  .PU   99 995 99  1 : MR irreducible fluids
MBVM  .PU   99 995 99  1 : MR moveable fluids
MCBW  .PU   99 995 99  1 : MR clay bound porosity fluids
MPHE  .PU   99 995 99  1 : MR effective porosity
MPHS  .PU   99 995 99  1 : MR total porosity
MPRM  .MD   99 995 99  1 : MR permeability
PEQH  .B/E  45 358  1  1 : Photo electric cross-section
PORZ  .PU   45 890 99  1 : Porosity for selectable matrix
PORZC .PU   99 995 99  1 : Corrected porosity
TEN   .LBF  99 635 99  1 : Differential tension
TTEN  .LBF  99 635 99  1 : Total tension
WTBH  .DEGC 99 995 99  1 : Temperature of borehole
ZCORQH.G/C3 45 356 99  1 : Density correction
ZDEN  .G/C3 45 350  1  1 : Formation bulk density
ZDENQH.G/C3 45 350  1  1 : Formation bulk density
ZDNC  .G/C3 94 995 99  1 : Borehole size/mud weight corrected density
ZDNCQH.G/C3 94 995 99  1 : Borehole size/mud weight corrected density
~Params ----------------------------------------------------
HID1.        GAMMA RAY LOG : Header Identifer
HID2.   MAGNETIC RESONANCE : Header Identifer
HID3.         EXPLORER LOG : Header Identifer
CLAB.             RIG NAME : County Label (Comments)
SLAB.              COUNTRY : State Label (Comments)
STAT.          NETHERLANDS : State Or Province
CMT1.          FIELD PRINT : Comment 1
FL1 .                  LON : 04 21'09.62"  E                     : Field Location 1
FL2 .                UTM N : : Field Location 2
FL3 .                UTM E : : Field Location 3
OS1 .     HDIL/XMAC ZDL/CN : Other Services Line 1
OS2 .                  DSL : Other Services Line 2
OS3 .                 GXPL : Other Services Line 3
OS4 .                  BHP : Other Services Line 4
OS5 .                  RCI : Other Services Line 5
PDAT.                  MSL : Permanent Datum
EPD .M                   0 : Elevation Of Perm. Datum
LMF .                   DF : Log Measured From
APD .M                47.5 : Above Permanent Datum
DMF .                   DF : Drilling Measured From
EKB .M                47.5 : Elevation Of Kelly Bushing
EDF .M                47.5 : Elevation Of Derrick Floor
EGL .M               -42.0 : Elevation Of Ground Level
TRIP.                    3 : Trip Number
SON .            13-163585 : Service Order Number
TDD .M              2915.0 : Total Depth - Driller
BLI .M              2880.0 : Bottom Log Interval
TLI .M              2790.0 : Top Log Interval
CSIZ.IN             18.625 : Casing Size
CBDR.M              1666.0 : Casing Bottom - Driller
BS  .IN              8.375 : Bit Size
DFT .                LTOBM : Drilling Fluid Type
DFD .G/C3             1.51 : Drilling Fluid Density
DFV .S                  25 : Drilling Fluid Viscosity
DFL .C3                1.2 : Drilling Fluid Loss
MSS .             FLOWLINE : Mud Sample Source
RMS .OHMM              >10 : Resistivity Of Mud Sample
RMFS.OHMM              >10 : Resistivity Of Mud Filtrate Sample
RMCS.OHMM              >10 : Resistivity Of Mud Cake Sample
MFSS.                   NA : Mud Filtrate Sample Source
MCSS.                   NA : Mud Cake Sample Source
RMB .OHMM              >10 : Mud Resistivity At Bht
TSC .             20.6 HRS : Time Since Circulation
MRT .DEGC             94.6 : Maximum Recorded Temperature
LUN .                 8934 : Logging Unit Number
LUL .           DEN HELDER : Logging Unit Location
ENGI. A. WIEFKERS/M. HEKEL : Engineer's Name
WITN.         P. GERRITSEN : Witness' Name
TSTR.       /GR/MREX/MREX/ : Title Service Mnemonic
TSTG.                   NA : Title Service Mnemonic
STUS.                FINAL : Status
LCNM.          BAKER ATLAS : Logging Company Name
LCC .                  150 : Logging Company Code
OPMD.              OH.WIRE : Operation Mode
PANA. A. WIEFKERS/M. HEKEL : Processing Analyst
PCON.          BAKER ATLAS : Processing Contractor
DATE.          31-MAR-2013 : Date As Month-Day-Year
TRIP.                    4 : Trip Number
SON .            13-163585 : Service Order Number
TDD .M              2915.0 : Total Depth - Driller
BLI .M              2897.6 : Bottom Log Interval
TLI .M              2779.0 : Top Log Interval
CSIZ.IN             18.625 : Casing Size
CBDR.M              1666.0 : Casing Bottom - Driller
BS  .IN              8.375 : Bit Size
DFT .                LTOBM : Drilling Fluid Type
DFD .G/C3             1.51 : Drilling Fluid Density
DFV .S                  25 : Drilling Fluid Viscosity
DFL .C3                1.2 : Drilling Fluid Loss
MSS .             FLOWLINE : Mud Sample Source
RMS .OHMM              >10 : Resistivity Of Mud Sample
RMFS.OHMM              >10 : Resistivity Of Mud Filtrate Sample
RMCS.OHMM              >10 : Resistivity Of Mud Cake Sample
MFSS.                   NA : Mud Filtrate Sample Source
MCSS.                   NA : Mud Cake Sample Source
RMB .OHMM              >10 : Mud Resistivity At Bht
TSC .             29.4 HRS : Time Since Circulation
MRT .DEGC             94.2 : Maximum Recorded Temperature
LUN .                 8934 : Logging Unit Number
LUL .           DEN HELDER : Logging Unit Location
ENGI. A. WIEFKERS/M. HEKEL : Engineer's Name
WITN.         P. GERRITSEN : Witness' Name
APIN.                      : API Serial Number
~Other -----------------------------------------------------
DEPTH AUDIT:
- ALL DEPTHS ARE REFERENCED TO DRILL FLOOR.
- LOG TIED INTO RUN A1 DSL/ORIT/XMAC/WGI/HDIL DATED 30-MAR-2013.
- TOOLS ZEROED ON DRILL FLOOR AT TTRM WRM AT 18.04 M.
GENERAL:
- LAST CIRCULATION ON 30-MAR-2013 AT 09:00 HRS FOR 3 HRS.
- MAXIMUM RECORDED TEMPERATURE FROM TTRM SUB IS 94.6 DEGC AT 2784.4 M
- MAXIMUM RECORDED DEVIATION IS 23.9 DEG AT 2173.605.
- TOOLSTRING RUN  A3 MRCH/EEJ/GR/CN/ZDL/MREX.
- CN/ZDL RECORDED SIMULTANEOUS BUT PRESENTED UNDER SEPARATE HEADINGS.
- ADDITIONAL MUD PROPERTIES: WHOLE MUD SALINITY = 31000 MG/L
CORRECTED SOLIDS = 24 %
YP = 16 LB/100FT2
PV = 25 CP
OIL/WATER RATIO 76/24
LOGGING PASS ABORTED DUE TO MREX COMMINUCATION ISSUES.
NO MREX DATA RECORDED.
DEPTH AUDIT:
- ALL DEPTHS ARE REFERENCED TO DRILL FLOOR.
- LOG TIED INTO RUN A1 DSL/ORIT/XMAC/WGI/HDIL DATED 30-MAR-2013.
- TOOLS ZEROED ON DRILL FLOOR AT TTRM WRM AT 18.04 M
GENERAL:
- LAST CIRCULATION ON 30-MAR-2013 AT 09:00 HRS FOR 3 HRS.
- MAXIMUM RECORDED TEMPERATURE FROM TTRM SUB IS 94.6 DEGC AT 2784.4 M
- MAXIMUM RECORDED DEVIATION IS 23.9 DEG AT 2173.605.
- TOOLSTRING RUN  A3 MRCH/EEJ/GR/CN/ZDL/MREX.
- CN/ZDL RECORDED SIMULTANEOUS BUT PRESENTED UNDER SEPARATE HEADINGS.
- ADDITIONAL MUD PROPERTIES: WHOLE MUD SALINITY = 31000 MG/L
CORRECTED SOLIDS = 24 %
YP = 16 LB/100FT2
PV = 25 CP
OIL/WATER RATIO 76/24
MREX:
- MREX LOGGED IN PP LIGHT OIL.
PARAMETERS USED : TW=11.1 SEC , VRES 0.6M AND AL=6.
DATA RECORDED IN TO PASSES, DUE TO OVERPULL ON THE TOOLSTRING.
DATA FILES SPLICED AT 2837.0M ON CUSTOMERS REQUEST.
#  Curve Data
~ASCII -----------------------------------------------------
# ...
 2894.25000   90.71800    7.95700 2081.07200   30.72800   30.96200   31.44100   31.20300 2894.25000    -999.25    1.51600    0.10900   11.48500    1.62500   13.10900    0.00000    5.51600    8.92100    9.40100    5.52600 5476.58600    -999.25    0.12100    2.55700    2.58500    2.54900    2.57600
 2894.37500   88.45900    7.96400 2083.93300    -999.25    -999.25   30.95300   30.73000 2894.37500    -999.25    1.43100    0.16000   11.41500    1.59100   13.00600    0.00000    5.67900    8.24800    8.73200    7.34100 5478.10400    -999.25    0.10600    2.56900    2.59700    2.56100    2.58900
 2894.50000   88.31300    7.96800 2082.48100    -999.25    -999.25   29.70600   29.50100 2894.50000    -999.25    1.42600    0.20600   11.34900    1.63300   12.98100    0.00000    5.92000    7.83300    8.31900    9.01100 5478.61400    -999.25    0.06600    2.57600    2.57400    2.56800    2.56600
 2894.62500   89.16500    7.96800 2078.95100    -999.25    -999.25   30.96800   30.74800 2894.62500    -999.25    1.44800    0.23000   11.30300    1.67800   12.98100    0.00000    5.51800    7.65600    8.14200   12.06200 5479.84700    -999.25    0.02800    2.57900    2.56800    2.57100    2.56000
 2894.75000   90.35500    7.96400 2073.58600    -999.25    -999.25    -999.25    -999.25 2894.75000    -999.25    1.41800    0.22000   11.26400    1.63800   12.90200    0.00000    5.31300    7.53500    8.02100   11.51000 5477.59600    -999.25   -0.00600    2.58100    2.57800    2.57300    2.57000
 2894.87500   89.65600    7.95500 2068.40400    -999.25    -999.25    -999.25    -999.25 2894.87500    -999.25    1.34500    0.17800   11.16600    1.52300   12.69000    0.00000    5.69300    7.41300    7.89900    4.61300 5470.64300    -999.25   -0.02200    2.58300    2.59800    2.57500    2.58900
 2895.00000   90.02700    7.94800 2067.71700    -999.25    -999.25    -999.25    -999.25 2895.00000    -999.25    1.31000    0.11900   10.97300    1.43000   12.40300    0.00000    5.83700    7.46000    7.94600   -1.88900 5465.85300    -999.25   -0.02000    2.58200    2.57700    2.57400    2.56900
 2895.12500   90.86200    7.95200 2073.24500    -999.25    -999.25    -999.25    -999.25 2895.12500    -999.25    1.36900    0.06100   10.71600    1.43000   12.14500    0.00000    5.61400    7.76800    8.25300   -1.68100 5468.67200    -999.25    0.01500    2.57700    2.57200    2.56900    2.56300
 2895.25000   89.95800    7.96600 2078.85800    -999.25    -999.25    -999.25    -999.25 2895.25000    -999.25    1.49800    0.02200   10.49400    1.52000   12.01400    0.00000    5.66700    8.33200    8.81500   -0.06100 5472.69800    -999.25    0.06800    2.56800    2.59200    2.55900    2.58400
 2895.37500   89.68300    7.98000 2081.14600    -999.25    -999.25    -999.25    -999.25 2895.37500    -999.25    1.64800    0.01300   10.34900    1.66100   12.00900    0.00000    6.00500    9.06700    9.54700   -5.32400 5469.51500    -999.25    0.09400    2.55500    2.58700    2.54700    2.57900
 2895.50000   90.37400    7.98900 2083.13500    -999.25    -999.25    -999.25    -999.25 2895.50000    -999.25    1.76100    0.03900   10.30500    1.80000   12.10500    0.00000    6.19600    9.84200   10.31900  -19.64200 5457.38600    -999.25    0.09200    2.54200    2.54100    2.53400    2.53300
 2895.62500   89.09300    7.99800 2086.86100    -999.25    -999.25    -999.25    -999.25 2895.62500    -999.25    1.80400    0.08800   10.35100    1.89200   12.24300    0.00000    6.34900   10.34300   10.81700  -32.84100 5446.96100    -999.25    0.10100    2.53300    2.51700    2.52500    2.50900
 2895.75000   89.78400    8.00800 2088.54500    -999.25    -999.25    -999.25    -999.25 2895.75000    -999.25    1.77600    0.14900   10.42500    1.92500   12.35100    0.00000    6.24400   10.21500   10.69000  -37.93300 5445.46500    -999.25    0.12800    2.53500    2.53300    2.52700    2.52500
 2895.87500   90.10900    8.01000 2087.15900    -999.25    -999.25    -999.25    -999.25 2895.87500    -999.25    1.72500    0.19600   10.40300    1.92100   12.32400    0.00000    5.72600    9.48100    9.96000  -31.34200 5456.06300    -999.25    0.14400    2.54800    2.56500    2.54000    2.55700
 2896.00000   90.86600    7.99800 2089.08300    -999.25    -999.25    -999.25    -999.25 2896.00000    -999.25    1.71700    0.20500   10.24800    1.92300   12.17100    0.00000    5.39300    8.87600    9.35700  -15.85100 5474.69700    -999.25    0.13600    2.55800    2.59200    2.55000    2.58300
 2896.12500   90.21300    7.98000 2097.16700    -999.25    -999.25    -999.25    -999.25 2896.12500    -999.25    1.78500    0.17100   10.00700    1.95600   11.96300    0.00000    5.20400    8.68200    9.16400    2.94900 5494.61200    -999.25    0.10000    2.56200    2.56100    2.55300    2.55200
 2896.25000   89.38900    7.96700 2098.34500    -999.25    -999.25    -999.25    -999.25 2896.25000    -999.25    1.91900    0.11300    9.77800    2.03200   11.81000    0.00000    4.75200    8.19100    8.67400   12.34900 5503.07300    -999.25    0.06800    2.57000    2.54500    2.56200    2.53700
 2896.37500   89.67100    7.96500 2085.26500    -999.25    -999.25    -999.25    -999.25 2896.37500    -999.25    2.07100    0.07000    9.64700    2.14100   11.78800    0.00000    3.90500    6.81700    7.30700    4.23700 5493.96800    -999.25    0.04900    2.59300    2.60200    2.58500    2.59400
 2896.50000   89.86900    7.97000 2066.31800    -999.25    -999.25    -999.25    -999.25 2896.50000    -999.25    2.17600    0.07600    9.70400    2.25100   11.95600    0.00000    3.59400    4.75200    5.25000  -20.63200 5470.66300    -999.25    0.01300    2.62900    2.68600    2.62000    2.67700
 2896.62500   89.28000    7.97400 2055.45000    -999.25    -999.25    -999.25    -999.25 2896.62500    -999.25    2.18000    0.13400    9.96200    2.31300   12.27500    0.00000    3.97500    3.29700    3.80100  -44.27100 5452.52600    -999.25   -0.04000    2.65400    2.70200    2.64500    2.69300
 2896.75000   89.15500    7.97500 2058.11200    -999.25    -999.25    -999.25    -999.25 2896.75000    -999.25    2.08500    0.21200   10.33700    2.29700   12.63400    0.00000    4.13800    3.40800    3.91200  -51.59000 5452.95400    -999.25   -0.09600    2.65200    2.61500    2.64300    2.60600
 2896.87500   87.37100    7.97100 2073.65300    -999.25    -999.25    -999.25    -999.25 2896.87500    -999.25    1.92800    0.26300   10.74800    2.19100   12.93900    0.00000    4.45100    4.33500    4.83600  -38.94100 5472.13100    -999.25   -0.10600    2.63600    2.60000    2.62700    2.59100
 2897.00000   87.88900    7.96700 2091.31600    -999.25    -999.25    -999.25    -999.25 2897.00000    -999.25    1.74600    0.25400   11.12200    2.00100   13.12300    0.00000    5.49900    4.90000    5.39800  -21.22200 5492.49300    -999.25   -0.08200    2.62600    2.64400    2.61800    2.63500
 2897.12500   87.69500    7.96700 2098.58400    -999.25    -999.25    -999.25    -999.25 2897.12400    -999.25    1.52900    0.19400   11.40800    1.72400   13.13200    0.00000    6.19700    4.85000    5.34800  -12.19000 5500.91600    -999.25   -0.04800    2.62700    2.65600    2.61900    2.64800
 2897.25000   89.61000    7.97000 2091.23200    -999.25    -999.25    -999.25    -999.25 2897.25000    -999.25    1.26100    0.11100   11.57900    1.37200   12.95000    0.00000    6.18300    4.37400    4.87400  -15.95800 5496.16400    -999.25   -0.01800    2.63500    2.62900    2.62700    2.62100
 2897.37500   90.75600    -999.25 2085.58900    -999.25    -999.25    -999.25    -999.25 2897.37500    -999.25    0.99800    0.04600   11.68400    1.04300   12.72700    0.00000    6.02700    3.75500    4.25800  -19.49000 5493.24000    -999.25    0.00600    2.64600    2.63700    2.63700    2.62900
 2897.50000   89.77100    -999.25 2088.75700    -999.25    -999.25    -999.25    -999.25 2897.50000    -999.25    0.81400    0.01100   11.78700    0.82600   12.61200    0.00000    -999.25    -999.25    -999.25  -16.31500 5497.96100    -999.25    0.01100    -999.25    2.67600    -999.25    2.66700
