~Version ---------------------------------------------------
VERS. 2.0 : CWLS log ASCII Standard -VERSION 2.0
WRAP.  NO : One line per frame
~Well ------------------------------------------------------
STRT.M            2772.75 : Starting Depth
STOP.M           2907.625 : Ending Depth
STEP.M              0.125 : Level Spacing
NULL.             -999.25 : Absent Value
COMP.            GDF SUEZ : Company
WELL.               L5-15 : Well
FLD .              L5 OIL : Field
LOC . LAT: 53 48'42.03" N : Location
PROV.    NOBLE PIET V EDE : Province
SRVC.         Baker ATLAS : Service Company
LIC .                     : License Number
DATE.         31-MAR-2013 : Log Date
UWI .                     : Unique Well ID
~Curve Information -----------------------------------------
DEPT  .M    99 995 99  1 : Depth
BHT   .DEGC 99 995 99  1 : Borehole temperature
CAL   .IN   70 280 99  1 : Caliper
CHT   .LBF  99 635 99  1 : Cable head tension
CN    .PU   42 890  1  1 : Compensated neutron porosity
CNC   .PU   42 995 99  1 : Borehole size corrected compensated neutron porosity
CNCQH .PU   42 995 99  1 : Borehole size corrected compensated neutron porosity
CNQH  .PU   42 890  1  1 : Compensated neutron porosity
DEPTH .M    99   1 99  1 : System depth
GR    .GAPI 30 310  1  1 : Gamma ray
MBVI  .PU   99 995 99  1 : MR irreducible fluids
MBVM  .PU   99 995 99  1 : MR moveable fluids
MCBW  .PU   99 995 99  1 : MR clay bound porosity fluids
MPHE  .PU   99 995 99  1 : MR effective porosity
MPHS  .PU   99 995 99  1 : MR total porosity
MPRM  .MD   99 995 99  1 : MR permeability
PEQH  .B/E  45 358  1  1 : Photo electric cross-section
PORZ  .PU   45 890 99  1 : Porosity for selectable matrix
PORZC .PU   99 995 99  1 : Corrected porosity
TEN   .LBF  99 635 99  1 : Differential tension
TTEN  .LBF  99 635 99  1 : Total tension
WTBH  .DEGC 99 995 99  1 : Temperature of borehole
ZCORQH.G/C3 45 356 99  1 : Density correction
ZDEN  .G/C3 45 350  1  1 : Formation bulk density
ZDENQH.G/C3 45 350  1  1 : Formation bulk density
ZDNC  .G/C3 94 995 99  1 : Borehole size/mud weight corrected density
ZDNCQH.G/C3 94 995 99  1 : Borehole size/mud weight corrected density
~Params ----------------------------------------------------
HID1.        GAMMA RAY LOG : Header Identifer
HID2.   MAGNETIC RESONANCE : Header Identifer
HID3.         EXPLORER LOG : Header Identifer
CLAB.             RIG NAME : County Label (Comments)
SLAB.              COUNTRY : State Label (Comments)
STAT.          NETHERLANDS : State Or Province
CMT1.          FIELD PRINT : Comment 1
FL1 .                  LON : 04 21'09.62"  E                     : Field Location 1
FL2 .                UTM N : : Field Location 2
FL3 .                UTM E : : Field Location 3
OS1 .     HDIL/XMAC ZDL/CN : Other Services Line 1
OS2 .                  DSL : Other Services Line 2
OS3 .                 GXPL : Other Services Line 3
OS4 .                  BHP : Other Services Line 4
OS5 .                  RCI : Other Services Line 5
PDAT.                  MSL : Permanent Datum
EPD .M                   0 : Elevation Of Perm. Datum
LMF .                   DF : Log Measured From
APD .M                47.5 : Above Permanent Datum
DMF .                   DF : Drilling Measured From
EKB .M                47.5 : Elevation Of Kelly Bushing
EDF .M                47.5 : Elevation Of Derrick Floor
EGL .M               -42.0 : Elevation Of Ground Level
TRIP.                    3 : Trip Number
SON .            13-163585 : Service Order Number
TDD .M              2915.0 : Total Depth - Driller
BLI .M              2880.0 : Bottom Log Interval
TLI .M              2790.0 : Top Log Interval
CSIZ.IN             18.625 : Casing Size
CBDR.M              1666.0 : Casing Bottom - Driller
BS  .IN              8.375 : Bit Size
DFT .                LTOBM : Drilling Fluid Type
DFD .G/C3             1.51 : Drilling Fluid Density
DFV .S                  25 : Drilling Fluid Viscosity
DFL .C3                1.2 : Drilling Fluid Loss
MSS .             FLOWLINE : Mud Sample Source
RMS .OHMM              >10 : Resistivity Of Mud Sample
RMFS.OHMM              >10 : Resistivity Of Mud Filtrate Sample
RMCS.OHMM              >10 : Resistivity Of Mud Cake Sample
MFSS.                   NA : Mud Filtrate Sample Source
MCSS.                   NA : Mud Cake Sample Source
RMB .OHMM              >10 : Mud Resistivity At Bht
TSC .             20.6 HRS : Time Since Circulation
MRT .DEGC             94.6 : Maximum Recorded Temperature
LUN .                 8934 : Logging Unit Number
LUL .           DEN HELDER : Logging Unit Location
ENGI. A. WIEFKERS/M. HEKEL : Engineer's Name
WITN.         P. GERRITSEN : Witness' Name
TSTR.       /GR/MREX/MREX/ : Title Service Mnemonic
TSTG.                   NA : Title Service Mnemonic
STUS.                FINAL : Status
LCNM.          BAKER ATLAS : Logging Company Name
LCC .                  150 : Logging Company Code
OPMD.              OH.WIRE : Operation Mode
PANA. A. WIEFKERS/M. HEKEL : Processing Analyst
PCON.          BAKER ATLAS : Processing Contractor
DATE.          31-MAR-2013 : Date As Month-Day-Year
TRIP.                    4 : Trip Number
SON .            13-163585 : Service Order Number
TDD .M              2915.0 : Total Depth - Driller
BLI .M              2897.6 : Bottom Log Interval
TLI .M              2779.0 : Top Log Interval
CSIZ.IN             18.625 : Casing Size
CBDR.M              1666.0 : Casing Bottom - Driller
BS  .IN              8.375 : Bit Size
DFT .                LTOBM : Drilling Fluid Type
DFD .G/C3             1.51 : Drilling Fluid Density
DFV .S                  25 : Drilling Fluid Viscosity
DFL .C3                1.2 : Drilling Fluid Loss
MSS .             FLOWLINE : Mud Sample Source
RMS .OHMM              >10 : Resistivity Of Mud Sample
RMFS.OHMM              >10 : Resistivity Of Mud Filtrate Sample
RMCS.OHMM              >10 : Resistivity Of Mud Cake Sample
MFSS.                   NA : Mud Filtrate Sample Source
MCSS.                   NA : Mud Cake Sample Source
RMB .OHMM              >10 : Mud Resistivity At Bht
TSC .             29.4 HRS : Time Since Circulation
MRT .DEGC             94.2 : Maximum Recorded Temperature
LUN .                 8934 : Logging Unit Number
LUL .           DEN HELDER : Logging Unit Location
ENGI. A. WIEFKERS/M. HEKEL : Engineer's Name
WITN.         P. GERRITSEN : Witness' Name
APIN.                      : API Serial Number
~Other -----------------------------------------------------
DEPTH AUDIT:
- ALL DEPTHS ARE REFERENCED TO DRILL FLOOR.
- LOG TIED INTO RUN A1 DSL/ORIT/XMAC/WGI/HDIL DATED 30-MAR-2013.
- TOOLS ZEROED ON DRILL FLOOR AT TTRM WRM AT 18.04 M.
GENERAL:
- LAST CIRCULATION ON 30-MAR-2013 AT 09:00 HRS FOR 3 HRS.
- MAXIMUM RECORDED TEMPERATURE FROM TTRM SUB IS 94.6 DEGC AT 2784.4 M
- MAXIMUM RECORDED DEVIATION IS 23.9 DEG AT 2173.605.
- TOOLSTRING RUN  A3 MRCH/EEJ/GR/CN/ZDL/MREX.
- CN/ZDL RECORDED SIMULTANEOUS BUT PRESENTED UNDER SEPARATE HEADINGS.
- ADDITIONAL MUD PROPERTIES: WHOLE MUD SALINITY = 31000 MG/L
CORRECTED SOLIDS = 24 %
YP = 16 LB/100FT2
PV = 25 CP
OIL/WATER RATIO 76/24
LOGGING PASS ABORTED DUE TO MREX COMMINUCATION ISSUES.
NO MREX DATA RECORDED.
DEPTH AUDIT:
- ALL DEPTHS ARE REFERENCED TO DRILL FLOOR.
- LOG TIED INTO RUN A1 DSL/ORIT/XMAC/WGI/HDIL DATED 30-MAR-2013.
- TOOLS ZEROED ON DRILL FLOOR AT TTRM WRM AT 18.04 M
GENERAL:
- LAST CIRCULATION ON 30-MAR-2013 AT 09:00 HRS FOR 3 HRS.
- MAXIMUM RECORDED TEMPERATURE FROM TTRM SUB IS 94.6 DEGC AT 2784.4 M
- MAXIMUM RECORDED DEVIATION IS 23.9 DEG AT 2173.605.
- TOOLSTRING RUN  A3 MRCH/EEJ/GR/CN/ZDL/MREX.
- CN/ZDL RECORDED SIMULTANEOUS BUT PRESENTED UNDER SEPARATE HEADINGS.
- ADDITIONAL MUD PROPERTIES: WHOLE MUD SALINITY = 31000 MG/L
CORRECTED SOLIDS = 24 %
YP = 16 LB/100FT2
PV = 25 CP
OIL/WATER RATIO 76/24
MREX:
- MREX LOGGED IN PP LIGHT OIL.
PARAMETERS USED : TW=11.1 SEC , VRES 0.6M AND AL=6.
DATA RECORDED IN TO PASSES, DUE TO OVERPULL ON THE TOOLSTRING.
DATA FILES SPLICED AT 2837.0M ON CUSTOMERS REQUEST.
#  Curve Data
~ASCII -----------------------------------------------------
# ...
 2874.00000   92.57100    8.13400 2140.93400   35.56900   35.63300   35.20400   35.14400 2874.00000  110.80900    2.23000    0.19700   10.93700    2.42600   13.36400    0.00000    5.29000    7.16100    7.65500    5.91900 5429.05600   89.56200    0.07100    2.58800    2.62600    2.57900    2.61800
 2874.12500   90.54800    8.13200 2137.92900   35.85800   35.92800   35.45700   35.39200 2874.12500  112.71600    2.42400    0.19600   10.96200    2.62000   13.58300    0.00000    4.96700    8.75600    9.24300    3.66800 5425.90400   89.83100    0.06000    2.56000    2.56500    2.55200    2.55600
 2874.25000   91.65000    8.12700 2134.16400   36.25900   36.34100   36.13300   36.05300 2874.25000  113.97500    2.62100    0.18000   11.10100    2.80200   13.90300    0.00000    4.81700   10.11100   10.59100    1.76000 5424.17700   89.99200    0.04800    2.53700    2.52000    2.52900    2.51200
 2874.37500   92.51800    8.11900 2127.57400   36.39000   36.48300   37.00500   36.90300 2874.37500  113.98900    2.77500    0.16100   11.31800    2.93600   14.25400    0.00000    4.89900   10.60500   11.08200   -2.72000 5421.07300   89.96000    0.04500    2.52900    2.52200    2.52000    2.51400
 2874.50000   92.57300    8.11800 2120.40100   36.09100   36.18200   36.72100   36.62400 2874.50000  113.16000    2.85800    0.16000   11.57000    3.01800   14.58800    0.00000    5.04600   10.38300   10.86200  -10.08300 5416.21900   89.90000    0.05100    2.53200    2.53800    2.52400    2.53000
 2874.62500   93.11800    8.12600 2119.57000   35.55900   35.63400   35.75100   35.67700 2874.62500  112.22100    2.87900    0.20000   11.82600    3.07800   14.90500    0.00000    5.22400    9.81700   10.29800  -14.17100 5415.33800   89.81700    0.06100    2.54200    2.54100    2.53400    2.53200
 2874.75000   94.69200    8.13800 2124.71100   35.25900   35.31400   34.98700   34.93900 2874.75000  111.52900    2.90300    0.27600   12.03100    3.18000   15.21000    0.00000    5.68900    9.36100    9.84500  -13.75000 5418.78900   89.70000    0.07500    2.55000    2.55600    2.54200    2.54800
 2874.87500   91.69300    8.15000 2130.82800   35.37100   35.41200   35.17000   35.13100 2874.87500  110.88200    2.95700    0.36200   12.13700    3.31900   15.45600    0.00000    5.63500    9.11700    9.60300  -12.24300 5423.01200   89.70700    0.07400    2.55400    2.55900    2.54600    2.55100
 2875.00000   91.46600    8.15800 2136.76600   35.64600   35.67900   35.84200   35.81000 2875.00000  110.25000    2.98800    0.42100   12.12100    3.40900   15.53000    0.00000    4.93700    8.98200    9.46900   -8.67200 5428.82600   89.98200    0.06100    2.55600    2.55900    2.54800    2.55100
 2875.12500   91.87800    8.16700 2140.32900   35.74400   35.76600   36.37000   36.34300 2875.12500  110.24500    2.91000    0.45400   12.02800    3.36400   15.39200    0.00000    4.66400    8.92900    9.41600   -2.94100 5436.01500   90.39300    0.04700    2.55700    2.55800    2.54900    2.55000
 2875.25000   91.77500    8.17300 2138.55400   35.67600   35.69000   35.31900   35.31000 2875.25000  111.18400    2.70300    0.46500   11.89100    3.16700   15.05800    0.00000    4.72900    8.84000    9.32800   -1.92600 5437.87800   90.80300    0.03700    2.55900    2.54100    2.55000    2.53300
 2875.37500   98.15600    8.17000 2128.38100   35.59200   35.60900   35.21400   35.19900 2875.37500  112.44100    2.46200    0.43800   11.69100    2.90000   14.59100    0.00000    5.12600    8.46900    8.95900   -9.94800 5431.38000   91.12400    0.06200    2.56500    2.55700    2.55700    2.54900
 2875.50000   92.62400    8.16100 2113.57000   35.46600   35.49300   36.20400   36.16800 2875.50000  112.91900    2.30400    0.35800   11.40100    2.66200   14.06400    0.00000    5.19200    7.80600    8.29800  -19.87300 5424.72800   91.16300    0.09400    2.57700    2.58000    2.56800    2.57100
 2875.62500   92.81300    8.15500 2107.30100   35.05200   35.08200   36.09300   36.05100 2875.62500  111.78100    2.27700    0.23600   11.01900    2.51300   13.53200    0.00000    4.91500    6.92500    7.42100  -19.31900 5430.05200   90.77000    0.10500    2.59200    2.59200    2.58300    2.58300
 2875.75000   92.63200    8.15400 2121.74400   34.30400   34.32800   35.84100   35.80100 2875.75000  108.60600    2.34100    0.12900   10.65500    2.46900   13.12400    0.00000    5.06300    6.34300    6.84100   -6.65100 5446.77200   90.17300    0.10400    2.60200    2.59700    2.59300    2.58900
 2875.87500   91.68800    8.15200 2145.82600   33.48600   33.50500   34.54000   34.51000 2875.87500  103.66800    2.42800    0.08400   10.44600    2.51200   12.95800    0.00000    5.36900    6.54000    7.03700    3.06900 5458.59900   89.73600    0.10500    2.59800    2.58700    2.59000    2.57800
 2876.00000   92.42400    8.14400 2161.00000   32.71500   32.73700   33.45800   33.42700 2876.00000   97.78000    2.54500    0.11300   10.42200    2.65800   13.08000    0.00000    5.54500    7.21700    7.71100   -0.03400 5456.00300   89.68200    0.11000    2.58700    2.54800    2.57800    2.54000
 2876.12500   90.46900    8.13700 2157.26800   32.11600   32.14200   32.85600   32.82200 2876.12500   93.17500    2.72000    0.15900   10.40900    2.87900   13.28900    0.00000    5.69300    7.40400    7.89700   -9.78400 5447.01500   89.91200    0.13200    2.58300    2.55300    2.57500    2.54400
 2876.25000   91.45600    8.13700 2145.88300   31.90300   31.92700   31.54400   31.52400 2876.25000   91.61800    2.92800    0.16700   10.24900    3.09400   13.34400    0.00000    5.75200    6.87900    7.37400  -17.07400 5441.78100   90.14500    0.16000    2.59200    2.62800    2.58400    2.62000
 2876.37500   91.70300    8.14000 2140.35800   32.15100   32.17300   31.13000   31.11700 2876.37500   93.56500    3.10700    0.11600    9.89600    3.22300   13.11900    0.00000    5.66200    6.12000    6.61800  -17.68000 5444.67400   90.20200    0.14000    2.60500    2.64000    2.59700    2.63100
 2876.50000   93.25600    8.14100 2143.06200   32.30600   32.32900   32.73800   32.71200 2876.50000   96.36400    3.21000    0.05500    9.50500    3.26500   12.76900    0.00000    5.39500    5.50600    6.00700  -15.34000 5451.34800   90.17200    0.09400    2.61600    2.60100    2.60700    2.59300
 2876.62500   91.92500    8.14000 2153.29300   31.76300   31.78200   32.91200   32.88300 2876.62600   97.42200    3.24700    0.02000    9.20300    3.26700   12.47000    0.00000    4.79100    4.90900    5.41200   -8.38300 5462.50100   90.38100    0.06200    2.62600    2.60300    2.61700    2.59400
 2876.75000   92.73700    8.14300 2163.20600   30.55100   30.55700   31.51000   31.49900 2876.75000   94.62300    3.21500    0.03700    9.04000    3.25100   12.29100    0.00000    4.46200    3.82700    4.33400    4.13100 5477.19600   90.98600    0.03500    2.64500    2.66600    2.63600    2.65800
 2876.87500   91.94400    8.15100 2164.78000   29.57800   29.56800   30.61900   30.62300 2876.87500   88.27700    3.04700    0.08900    8.89200    3.13700   12.02800    0.00000    4.21800    1.72500    2.24000   15.47900 5488.47300   91.53400   -0.00500    2.68100    2.71300    2.67200    2.70400
 2877.00000   91.67100    8.15300 2159.57700   28.97500   28.95800   30.16600   30.17500 2877.00000   79.71600    2.67000    0.14700    8.66300    2.81700   11.48000    0.00000    3.58100   -1.97100   -1.44400   18.76100 5490.08300   91.57600   -0.04600    2.74400    2.71100    2.73500    2.70200
 2877.12500   92.37800    8.14200 2154.10300   28.15600   28.14700   30.82100   30.80700 2877.12500   72.38600    2.12200    0.16200    8.28500    2.28400   10.56900    0.00000    3.06200   -6.52400   -5.98700   11.02800 5480.92400   91.27900   -0.06500    2.82200    2.79300    2.81200    2.78400
 2877.25000   88.61200    8.12600 2149.97800   27.24900   27.25300   28.87100   28.85600 2877.25000   69.13600    1.58800    0.12600    7.82700    1.71400    9.54100    0.00000    3.22500   -9.75900   -9.21800   -1.76900 5468.48400   91.16200   -0.06600    2.87700    2.92900    2.86800    2.92000
