~Version ---------------------------------------------------
VERS. 2.0 : CWLS log ASCII Standard -VERSION 2.0
WRAP.  NO : One line per frame
~Well ------------------------------------------------------
STRT.M            2772.75 : Starting Depth
STOP.M           2907.625 : Ending Depth
STEP.M              0.125 : Level Spacing
NULL.             -999.25 : Absent Value
COMP.            GDF SUEZ : Company
WELL.               L5-15 : Well
FLD .              L5 OIL : Field
LOC . LAT: 53 48'42.03" N : Location
PROV.    NOBLE PIET V EDE : Province
SRVC.         Baker ATLAS : Service Company
LIC .                     : License Number
DATE.         31-MAR-2013 : Log Date
UWI .                     : Unique Well ID
~Curve Information -----------------------------------------
DEPT  .M    99 995 99  1 : Depth
BHT   .DEGC 99 995 99  1 : Borehole temperature
CAL   .IN   70 280 99  1 : Caliper
CHT   .LBF  99 635 99  1 : Cable head tension
CN    .PU   42 890  1  1 : Compensated neutron porosity
CNC   .PU   42 995 99  1 : Borehole size corrected compensated neutron porosity
CNCQH .PU   42 995 99  1 : Borehole size corrected compensated neutron porosity
CNQH  .PU   42 890  1  1 : Compensated neutron porosity
DEPTH .M    99   1 99  1 : System depth
GR    .GAPI 30 310  1  1 : Gamma ray
MBVI  .PU   99 995 99  1 : MR irreducible fluids
MBVM  .PU   99 995 99  1 : MR moveable fluids
MCBW  .PU   99 995 99  1 : MR clay bound porosity fluids
MPHE  .PU   99 995 99  1 : MR effective porosity
MPHS  .PU   99 995 99  1 : MR total porosity
MPRM  .MD   99 995 99  1 : MR permeability
PEQH  .B/E  45 358  1  1 : Photo electric cross-section
PORZ  .PU   45 890 99  1 : Porosity for selectable matrix
PORZC .PU   99 995 99  1 : Corrected porosity
TEN   .LBF  99 635 99  1 : Differential tension
TTEN  .LBF  99 635 99  1 : Total tension
WTBH  .DEGC 99 995 99  1 : Temperature of borehole
ZCORQH.G/C3 45 356 99  1 : Density correction
ZDEN  .G/C3 45 350  1  1 : Formation bulk density
ZDENQH.G/C3 45 350  1  1 : Formation bulk density
ZDNC  .G/C3 94 995 99  1 : Borehole size/mud weight corrected density
ZDNCQH.G/C3 94 995 99  1 : Borehole size/mud weight corrected density
~Params ----------------------------------------------------
HID1.        GAMMA RAY LOG : Header Identifer
HID2.   MAGNETIC RESONANCE : Header Identifer
HID3.         EXPLORER LOG : Header Identifer
CLAB.             RIG NAME : County Label (Comments)
SLAB.              COUNTRY : State Label (Comments)
STAT.          NETHERLANDS : State Or Province
CMT1.          FIELD PRINT : Comment 1
FL1 .                  LON : 04 21'09.62"  E                     : Field Location 1
FL2 .                UTM N : : Field Location 2
FL3 .                UTM E : : Field Location 3
OS1 .     HDIL/XMAC ZDL/CN : Other Services Line 1
OS2 .                  DSL : Other Services Line 2
OS3 .                 GXPL : Other Services Line 3
OS4 .                  BHP : Other Services Line 4
OS5 .                  RCI : Other Services Line 5
PDAT.                  MSL : Permanent Datum
EPD .M                   0 : Elevation Of Perm. Datum
LMF .                   DF : Log Measured From
APD .M                47.5 : Above Permanent Datum
DMF .                   DF : Drilling Measured From
EKB .M                47.5 : Elevation Of Kelly Bushing
EDF .M                47.5 : Elevation Of Derrick Floor
EGL .M               -42.0 : Elevation Of Ground Level
TRIP.                    3 : Trip Number
SON .            13-163585 : Service Order Number
TDD .M              2915.0 : Total Depth - Driller
BLI .M              2880.0 : Bottom Log Interval
TLI .M              2790.0 : Top Log Interval
CSIZ.IN             18.625 : Casing Size
CBDR.M              1666.0 : Casing Bottom - Driller
BS  .IN              8.375 : Bit Size
DFT .                LTOBM : Drilling Fluid Type
DFD .G/C3             1.51 : Drilling Fluid Density
DFV .S                  25 : Drilling Fluid Viscosity
DFL .C3                1.2 : Drilling Fluid Loss
MSS .             FLOWLINE : Mud Sample Source
RMS .OHMM              >10 : Resistivity Of Mud Sample
RMFS.OHMM              >10 : Resistivity Of Mud Filtrate Sample
RMCS.OHMM              >10 : Resistivity Of Mud Cake Sample
MFSS.                   NA : Mud Filtrate Sample Source
MCSS.                   NA : Mud Cake Sample Source
RMB .OHMM              >10 : Mud Resistivity At Bht
TSC .             20.6 HRS : Time Since Circulation
MRT .DEGC             94.6 : Maximum Recorded Temperature
LUN .                 8934 : Logging Unit Number
LUL .           DEN HELDER : Logging Unit Location
ENGI. A. WIEFKERS/M. HEKEL : Engineer's Name
WITN.         P. GERRITSEN : Witness' Name
TSTR.       /GR/MREX/MREX/ : Title Service Mnemonic
TSTG.                   NA : Title Service Mnemonic
STUS.                FINAL : Status
LCNM.          BAKER ATLAS : Logging Company Name
LCC .                  150 : Logging Company Code
OPMD.              OH.WIRE : Operation Mode
PANA. A. WIEFKERS/M. HEKEL : Processing Analyst
PCON.          BAKER ATLAS : Processing Contractor
DATE.          31-MAR-2013 : Date As Month-Day-Year
TRIP.                    4 : Trip Number
SON .            13-163585 : Service Order Number
TDD .M              2915.0 : Total Depth - Driller
BLI .M              2897.6 : Bottom Log Interval
TLI .M              2779.0 : Top Log Interval
CSIZ.IN             18.625 : Casing Size
CBDR.M              1666.0 : Casing Bottom - Driller
BS  .IN              8.375 : Bit Size
DFT .                LTOBM : Drilling Fluid Type
DFD .G/C3             1.51 : Drilling Fluid Density
DFV .S                  25 : Drilling Fluid Viscosity
DFL .C3                1.2 : Drilling Fluid Loss
MSS .             FLOWLINE : Mud Sample Source
RMS .OHMM              >10 : Resistivity Of Mud Sample
RMFS.OHMM              >10 : Resistivity Of Mud Filtrate Sample
RMCS.OHMM              >10 : Resistivity Of Mud Cake Sample
MFSS.                   NA : Mud Filtrate Sample Source
MCSS.                   NA : Mud Cake Sample Source
RMB .OHMM              >10 : Mud Resistivity At Bht
TSC .             29.4 HRS : Time Since Circulation
MRT .DEGC             94.2 : Maximum Recorded Temperature
LUN .                 8934 : Logging Unit Number
LUL .           DEN HELDER : Logging Unit Location
ENGI. A. WIEFKERS/M. HEKEL : Engineer's Name
WITN.         P. GERRITSEN : Witness' Name
APIN.                      : API Serial Number
~Other -----------------------------------------------------
DEPTH AUDIT:
- ALL DEPTHS ARE REFERENCED TO DRILL FLOOR.
- LOG TIED INTO RUN A1 DSL/ORIT/XMAC/WGI/HDIL DATED 30-MAR-2013.
- TOOLS ZEROED ON DRILL FLOOR AT TTRM WRM AT 18.04 M.
GENERAL:
- LAST CIRCULATION ON 30-MAR-2013 AT 09:00 HRS FOR 3 HRS.
- MAXIMUM RECORDED TEMPERATURE FROM TTRM SUB IS 94.6 DEGC AT 2784.4 M
- MAXIMUM RECORDED DEVIATION IS 23.9 DEG AT 2173.605.
- TOOLSTRING RUN  A3 MRCH/EEJ/GR/CN/ZDL/MREX.
- CN/ZDL RECORDED SIMULTANEOUS BUT PRESENTED UNDER SEPARATE HEADINGS.
- ADDITIONAL MUD PROPERTIES: WHOLE MUD SALINITY = 31000 MG/L
CORRECTED SOLIDS = 24 %
YP = 16 LB/100FT2
PV = 25 CP
OIL/WATER RATIO 76/24
LOGGING PASS ABORTED DUE TO MREX COMMINUCATION ISSUES.
NO MREX DATA RECORDED.
DEPTH AUDIT:
- ALL DEPTHS ARE REFERENCED TO DRILL FLOOR.
- LOG TIED INTO RUN A1 DSL/ORIT/XMAC/WGI/HDIL DATED 30-MAR-2013.
- TOOLS ZEROED ON DRILL FLOOR AT TTRM WRM AT 18.04 M
GENERAL:
- LAST CIRCULATION ON 30-MAR-2013 AT 09:00 HRS FOR 3 HRS.
- MAXIMUM RECORDED TEMPERATURE FROM TTRM SUB IS 94.6 DEGC AT 2784.4 M
- MAXIMUM RECORDED DEVIATION IS 23.9 DEG AT 2173.605.
- TOOLSTRING RUN  A3 MRCH/EEJ/GR/CN/ZDL/MREX.
- CN/ZDL RECORDED SIMULTANEOUS BUT PRESENTED UNDER SEPARATE HEADINGS.
- ADDITIONAL MUD PROPERTIES: WHOLE MUD SALINITY = 31000 MG/L
CORRECTED SOLIDS = 24 %
YP = 16 LB/100FT2
PV = 25 CP
OIL/WATER RATIO 76/24
MREX:
- MREX LOGGED IN PP LIGHT OIL.
PARAMETERS USED : TW=11.1 SEC , VRES 0.6M AND AL=6.
DATA RECORDED IN TO PASSES, DUE TO OVERPULL ON THE TOOLSTRING.
DATA FILES SPLICED AT 2837.0M ON CUSTOMERS REQUEST.
#  Curve Data
~ASCII -----------------------------------------------------
# ...
 2863.87500   92.28000    8.11400 2176.94100   35.36700   35.45500   36.06300   35.96700 2863.87500  110.53800    3.81700    0.07300   10.49100    3.89000   14.38000    0.00000    4.63000   10.20400   10.68400   16.95000 5440.59900   92.50100    0.05100    2.53600    2.53600    2.52700    2.52800
 2864.00000   92.87000    8.11100 2158.77500   34.91100   34.99800   36.27600   36.17400 2864.00000  109.76700    3.61500    0.08500   10.46800    3.70000   14.16700    0.00000    5.08900    9.76800   10.24900  -17.05700 5407.79200   91.24400    0.06000    2.54300    2.55700    2.53500    2.54900
 2864.12500   94.42500    8.10900 2155.52600   34.56900   34.65400   34.04400   33.96500 2864.12500  111.40700    3.30300    0.12000   10.54400    3.42300   13.96700    0.00000    5.75900    9.76400   10.24500  -42.35100 5386.87400   90.43800    0.06000    2.54300    2.55300    2.53500    2.54500
 2864.25000   92.35800    8.11200 2161.15500   34.77900   34.86300   33.18000   33.11500 2864.25000  114.01200    3.01100    0.17800   10.63800    3.18900   13.82700    0.00000    5.63900    9.96800   10.44800  -52.47400 5383.14200   90.54300    0.06000    2.54000    2.52600    2.53100    2.51800
 2864.37500   92.18700    8.11800 2167.25500   35.46900   35.55300   34.83600   34.76200 2864.37500  116.12200    2.79300    0.24500   10.71700    3.03800   13.75500    0.00000    5.08400    9.91700   10.39800  -54.07800 5388.71700   91.14600    0.07300    2.54000    2.54000    2.53200    2.53200
 2864.50000   93.13300    8.12400 2174.71700   36.17000   36.25500   36.29000   36.20600 2864.50000  117.23900    2.66500    0.29200   10.84000    2.95700   13.79700    0.00000    5.12500    9.61000   10.09300  -46.88300 5402.80200   91.74500    0.07300    2.54600    2.57000    2.53700    2.56200
 2864.62500   92.35400    8.12700 2187.27800   36.55400   36.63900   37.02900   36.93900 2864.62500  117.59000    2.62900    0.28600   11.09900    2.91400   14.01300    0.00000    5.32700    9.47900    9.96200  -30.21200 5423.94100   92.21700    0.04700    2.54800    2.56200    2.54000    2.55400
 2864.75000   90.51000    8.13000 2206.28800   36.75600   36.84000   36.53200   36.45200 2864.75000  117.60900    2.64100    0.23500   11.45600    2.87600   14.33200    0.00000    5.03500    9.71200   10.19400   -6.47900 5448.15400   92.68800    0.02600    2.54400    2.53300    2.53600    2.52500
 2864.87500   92.30200    8.13100 2227.07900   36.83900   36.92300   37.19800   37.11100 2864.87500  117.38600    2.62300    0.17300   11.76900    2.79600   14.56500    0.00000    4.96900   10.05500   10.53600   21.72400 5471.60800   92.95500    0.02200    2.53800    2.51900    2.53000    2.51100
 2865.00000   93.35900    8.12400 2232.87200   36.85900   36.95200   36.67600   36.58300 2865.00000  116.98000    2.51100    0.13200   11.88400    2.64400   14.52800    0.00000    5.58300   10.12200   10.60200   40.51400 5482.05100   92.68700    0.03600    2.53700    2.54400    2.52900    2.53600
 2865.12500   92.84200    8.11400 2214.85800   36.92300   37.03000   36.79500   36.69100 2865.12500  116.65000    2.33300    0.11100   11.77300    2.44400   14.21700    0.00000    5.65400    9.90500   10.38600   38.76300 5472.00200   92.05000    0.04600    2.54100    2.55400    2.53200    2.54600
 2865.25000   93.01900    8.11400 2179.57900   37.21300   37.32500   37.36200   37.25100 2865.25000  116.93800    2.15600    0.09200   11.48400    2.24800   13.73200    0.00000    5.25300    9.61200   10.09400   19.34800 5448.40100   91.50700    0.05100    2.54600    2.54600    2.53700    2.53700
 2865.37500   90.39300    8.12100 2156.85900   37.58700   37.69300   37.53600   37.43500 2865.37500  117.80900    2.03100    0.06600   11.17400    2.09700   13.27100    0.00000    5.62600    9.45900    9.94200    3.98400 5432.79700   91.29300    0.05500    2.54800    2.55100    2.54000    2.54300
 2865.50000   93.29700    8.12800 2161.46400   37.84100   37.94000   38.02800   37.92700 2865.50100  118.64600    1.97800    0.03600   10.96600    2.01400   12.98000    0.00000    6.03700    9.43500    9.91900    4.44200 5433.78700   91.33600    0.04900    2.54900    2.55400    2.54000    2.54600
 2865.62500   92.54000    8.12800 2185.17500   37.79100   37.89100   37.72600   37.62800 2865.62500  118.70800    2.01600    0.01500   10.93100    2.03200   12.96300    0.00000    6.03800    9.49300    9.97700   14.21000 5441.35200   91.48500    0.04100    2.54800    2.55100    2.53900    2.54300
 2865.75000   90.10800    8.12200 2203.15800   37.49800   37.60200   37.88200   37.77300 2865.75000  118.31700    2.10600    0.01000   11.00700    2.11600   13.12400    0.00000    6.24700    9.72700   10.20900   22.10500 5444.53300   91.46400    0.03900    2.54400    2.55200    2.53500    2.54300
 2865.87500   92.00500    8.11500 2202.61300   37.17300   37.28200   37.52500   37.41300 2865.87500  118.03800    2.20400    0.03000   11.17700    2.23400   13.41100    0.00000    6.57700   10.01200   10.49200   23.43600 5440.35900   91.29200    0.03800    2.53900    2.53500    2.53100    2.52600
 2866.00000   92.68800    8.11500 2187.70900   36.92200   37.02900   37.12000   37.01400 2866.00000  118.09100    2.27100    0.07800   11.43500    2.34900   13.78300    0.00000    6.32000    9.96900   10.44900   14.43200 5427.71700   91.26000    0.04200    2.54000    2.53200    2.53100    2.52400
 2866.12500   93.65800    8.12100 2171.87700   36.65600   36.75000   37.30000   37.20000 2866.12500  118.00700    2.27700    0.13500   11.73000    2.41200   14.14300    0.00000    6.09500    9.57900   10.06200    1.47000 5414.03200   91.47400    0.04400    2.54600    2.54800    2.53800    2.54000
 2866.25000   92.52600    8.12900 2162.40400   36.28900   36.36900   36.69400   36.61200 2866.25000  117.47900    2.17400    0.18400   12.00100    2.35800   14.35900    0.00000    5.94100    9.08800    9.57400   -7.05300 5407.33800   91.84000    0.03700    2.55500    2.56100    2.54600    2.55300
 2866.37500   92.84500    8.13400 2159.76800   35.88000   35.94800   35.75300   35.68900 2866.37500  116.86900    1.96900    0.21100   12.19000    2.18000   14.37000    0.00000    5.59800    8.98400    9.47000  -10.96900 5406.30100   92.18100    0.02900    2.55600    2.56400    2.54800    2.55600
 2866.50000   94.99300    8.14000 2160.19300   35.56400   35.61900   35.71600   35.66000 2866.50000  116.68800    1.74600    0.21600   12.29700    1.96200   14.25800    0.00000    5.38000    9.35400    9.83800  -14.10100 5406.30800   92.35200    0.02700    2.55000    2.55200    2.54200    2.54400
 2866.62500   91.99100    8.15200 2163.86400   35.36800   35.40700   35.48700   35.45000 2866.62500  116.94800    1.58500    0.20100   12.33000    1.78600   14.11600    0.00000    5.36000    9.85100   10.33300  -15.31900 5408.31500   92.33800    0.03400    2.54200    2.53400    2.53300    2.52600
 2866.75000   93.49100    8.15800 2173.68000   35.17700   35.20500   35.41100   35.38000 2866.75000  116.81800    1.49700    0.18000   12.31200    1.67700   13.99000    0.00000    5.41300    9.99700   10.47900   -3.98400 5421.77900   92.38300    0.04900    2.53900    2.53700    2.53100    2.52900
 2866.87500   95.38500    8.15400 2187.79600   34.98800   35.01900   35.23600   35.20200 2866.87500  115.69900    1.47900    0.16200   12.26300    1.64100   13.90400    0.00000    5.55800    9.78400   10.26700   16.61700 5441.63500   92.42400    0.06000    2.54300    2.55800    2.53400    2.54900
 2867.00000   94.15700    8.14300 2198.02300   34.99700   35.04300   35.14000   35.09000 2867.00000  113.86200    1.55900    0.14500   12.16400    1.70500   13.86900    0.00000    5.75800    9.51000    9.99400   23.77600 5444.77100   92.10800    0.05500    2.54700    2.55400    2.53900    2.54600
 2867.12500   90.46300    8.13100 2198.07700   35.25400   35.31900   34.68300   34.62200 2867.12500  112.27500    1.73900    0.12300   11.96900    1.86200   13.83000    0.00000    5.73400    9.37700    9.86100   13.60900 5430.45200   91.44300    0.04900    2.55000    2.54200    2.54100    2.53400
