~Version ---------------------------------------------------
VERS. 2.0 : CWLS log ASCII Standard -VERSION 2.0
WRAP.  NO : One line per frame
~Well ------------------------------------------------------
STRT.M            2772.75 : Starting Depth
STOP.M           2907.625 : Ending Depth
STEP.M              0.125 : Level Spacing
NULL.             -999.25 : Absent Value
COMP.            GDF SUEZ : Company
WELL.               L5-15 : Well
FLD .              L5 OIL : Field
LOC . LAT: 53 48'42.03" N : Location
PROV.    NOBLE PIET V EDE : Province
SRVC.         Baker ATLAS : Service Company
LIC .                     : License Number
DATE.         31-MAR-2013 : Log Date
UWI .                     : Unique Well ID
~Curve Information -----------------------------------------
DEPT  .M    99 995 99  1 : Depth
BHT   .DEGC 99 995 99  1 : Borehole temperature
CAL   .IN   70 280 99  1 : Caliper
CHT   .LBF  99 635 99  1 : Cable head tension
CN    .PU   42 890  1  1 : Compensated neutron porosity
CNC   .PU   42 995 99  1 : Borehole size corrected compensated neutron porosity
CNCQH .PU   42 995 99  1 : Borehole size corrected compensated neutron porosity
CNQH  .PU   42 890  1  1 : Compensated neutron porosity
DEPTH .M    99   1 99  1 : System depth
GR    .GAPI 30 310  1  1 : Gamma ray
MBVI  .PU   99 995 99  1 : MR irreducible fluids
MBVM  .PU   99 995 99  1 : MR moveable fluids
MCBW  .PU   99 995 99  1 : MR clay bound porosity fluids
MPHE  .PU   99 995 99  1 : MR effective porosity
MPHS  .PU   99 995 99  1 : MR total porosity
MPRM  .MD   99 995 99  1 : MR permeability
PEQH  .B/E  45 358  1  1 : Photo electric cross-section
PORZ  .PU   45 890 99  1 : Porosity for selectable matrix
PORZC .PU   99 995 99  1 : Corrected porosity
TEN   .LBF  99 635 99  1 : Differential tension
TTEN  .LBF  99 635 99  1 : Total tension
WTBH  .DEGC 99 995 99  1 : Temperature of borehole
ZCORQH.G/C3 45 356 99  1 : Density correction
ZDEN  .G/C3 45 350  1  1 : Formation bulk density
ZDENQH.G/C3 45 350  1  1 : Formation bulk density
ZDNC  .G/C3 94 995 99  1 : Borehole size/mud weight corrected density
ZDNCQH.G/C3 94 995 99  1 : Borehole size/mud weight corrected density
~Params ----------------------------------------------------
HID1.        GAMMA RAY LOG : Header Identifer
HID2.   MAGNETIC RESONANCE : Header Identifer
HID3.         EXPLORER LOG : Header Identifer
CLAB.             RIG NAME : County Label (Comments)
SLAB.              COUNTRY : State Label (Comments)
STAT.          NETHERLANDS : State Or Province
CMT1.          FIELD PRINT : Comment 1
FL1 .                  LON : 04 21'09.62"  E                     : Field Location 1
FL2 .                UTM N : : Field Location 2
FL3 .                UTM E : : Field Location 3
OS1 .     HDIL/XMAC ZDL/CN : Other Services Line 1
OS2 .                  DSL : Other Services Line 2
OS3 .                 GXPL : Other Services Line 3
OS4 .                  BHP : Other Services Line 4
OS5 .                  RCI : Other Services Line 5
PDAT.                  MSL : Permanent Datum
EPD .M                   0 : Elevation Of Perm. Datum
LMF .                   DF : Log Measured From
APD .M                47.5 : Above Permanent Datum
DMF .                   DF : Drilling Measured From
EKB .M                47.5 : Elevation Of Kelly Bushing
EDF .M                47.5 : Elevation Of Derrick Floor
EGL .M               -42.0 : Elevation Of Ground Level
TRIP.                    3 : Trip Number
SON .            13-163585 : Service Order Number
TDD .M              2915.0 : Total Depth - Driller
BLI .M              2880.0 : Bottom Log Interval
TLI .M              2790.0 : Top Log Interval
CSIZ.IN             18.625 : Casing Size
CBDR.M              1666.0 : Casing Bottom - Driller
BS  .IN              8.375 : Bit Size
DFT .                LTOBM : Drilling Fluid Type
DFD .G/C3             1.51 : Drilling Fluid Density
DFV .S                  25 : Drilling Fluid Viscosity
DFL .C3                1.2 : Drilling Fluid Loss
MSS .             FLOWLINE : Mud Sample Source
RMS .OHMM              >10 : Resistivity Of Mud Sample
RMFS.OHMM              >10 : Resistivity Of Mud Filtrate Sample
RMCS.OHMM              >10 : Resistivity Of Mud Cake Sample
MFSS.                   NA : Mud Filtrate Sample Source
MCSS.                   NA : Mud Cake Sample Source
RMB .OHMM              >10 : Mud Resistivity At Bht
TSC .             20.6 HRS : Time Since Circulation
MRT .DEGC             94.6 : Maximum Recorded Temperature
LUN .                 8934 : Logging Unit Number
LUL .           DEN HELDER : Logging Unit Location
ENGI. A. WIEFKERS/M. HEKEL : Engineer's Name
WITN.         P. GERRITSEN : Witness' Name
TSTR.       /GR/MREX/MREX/ : Title Service Mnemonic
TSTG.                   NA : Title Service Mnemonic
STUS.                FINAL : Status
LCNM.          BAKER ATLAS : Logging Company Name
LCC .                  150 : Logging Company Code
OPMD.              OH.WIRE : Operation Mode
PANA. A. WIEFKERS/M. HEKEL : Processing Analyst
PCON.          BAKER ATLAS : Processing Contractor
DATE.          31-MAR-2013 : Date As Month-Day-Year
TRIP.                    4 : Trip Number
SON .            13-163585 : Service Order Number
TDD .M              2915.0 : Total Depth - Driller
BLI .M              2897.6 : Bottom Log Interval
TLI .M              2779.0 : Top Log Interval
CSIZ.IN             18.625 : Casing Size
CBDR.M              1666.0 : Casing Bottom - Driller
BS  .IN              8.375 : Bit Size
DFT .                LTOBM : Drilling Fluid Type
DFD .G/C3             1.51 : Drilling Fluid Density
DFV .S                  25 : Drilling Fluid Viscosity
DFL .C3                1.2 : Drilling Fluid Loss
MSS .             FLOWLINE : Mud Sample Source
RMS .OHMM              >10 : Resistivity Of Mud Sample
RMFS.OHMM              >10 : Resistivity Of Mud Filtrate Sample
RMCS.OHMM              >10 : Resistivity Of Mud Cake Sample
MFSS.                   NA : Mud Filtrate Sample Source
MCSS.                   NA : Mud Cake Sample Source
RMB .OHMM              >10 : Mud Resistivity At Bht
TSC .             29.4 HRS : Time Since Circulation
MRT .DEGC             94.2 : Maximum Recorded Temperature
LUN .                 8934 : Logging Unit Number
LUL .           DEN HELDER : Logging Unit Location
ENGI. A. WIEFKERS/M. HEKEL : Engineer's Name
WITN.         P. GERRITSEN : Witness' Name
APIN.                      : API Serial Number
~Other -----------------------------------------------------
DEPTH AUDIT:
- ALL DEPTHS ARE REFERENCED TO DRILL FLOOR.
- LOG TIED INTO RUN A1 DSL/ORIT/XMAC/WGI/HDIL DATED 30-MAR-2013.
- TOOLS ZEROED ON DRILL FLOOR AT TTRM WRM AT 18.04 M.
GENERAL:
- LAST CIRCULATION ON 30-MAR-2013 AT 09:00 HRS FOR 3 HRS.
- MAXIMUM RECORDED TEMPERATURE FROM TTRM SUB IS 94.6 DEGC AT 2784.4 M
- MAXIMUM RECORDED DEVIATION IS 23.9 DEG AT 2173.605.
- TOOLSTRING RUN  A3 MRCH/EEJ/GR/CN/ZDL/MREX.
- CN/ZDL RECORDED SIMULTANEOUS BUT PRESENTED UNDER SEPARATE HEADINGS.
- ADDITIONAL MUD PROPERTIES: WHOLE MUD SALINITY = 31000 MG/L
CORRECTED SOLIDS = 24 %
YP = 16 LB/100FT2
PV = 25 CP
OIL/WATER RATIO 76/24
LOGGING PASS ABORTED DUE TO MREX COMMINUCATION ISSUES.
NO MREX DATA RECORDED.
DEPTH AUDIT:
- ALL DEPTHS ARE REFERENCED TO DRILL FLOOR.
- LOG TIED INTO RUN A1 DSL/ORIT/XMAC/WGI/HDIL DATED 30-MAR-2013.
- TOOLS ZEROED ON DRILL FLOOR AT TTRM WRM AT 18.04 M
GENERAL:
- LAST CIRCULATION ON 30-MAR-2013 AT 09:00 HRS FOR 3 HRS.
- MAXIMUM RECORDED TEMPERATURE FROM TTRM SUB IS 94.6 DEGC AT 2784.4 M
- MAXIMUM RECORDED DEVIATION IS 23.9 DEG AT 2173.605.
- TOOLSTRING RUN  A3 MRCH/EEJ/GR/CN/ZDL/MREX.
- CN/ZDL RECORDED SIMULTANEOUS BUT PRESENTED UNDER SEPARATE HEADINGS.
- ADDITIONAL MUD PROPERTIES: WHOLE MUD SALINITY = 31000 MG/L
CORRECTED SOLIDS = 24 %
YP = 16 LB/100FT2
PV = 25 CP
OIL/WATER RATIO 76/24
MREX:
- MREX LOGGED IN PP LIGHT OIL.
PARAMETERS USED : TW=11.1 SEC , VRES 0.6M AND AL=6.
DATA RECORDED IN TO PASSES, DUE TO OVERPULL ON THE TOOLSTRING.
DATA FILES SPLICED AT 2837.0M ON CUSTOMERS REQUEST.
#  Curve Data
~ASCII -----------------------------------------------------
# ...
 2887.50000   91.00400    8.00600 2120.66900   34.49500   34.71500   34.74200   34.52300 2887.50000  121.04000    1.00700    0.26800   11.93100    1.27500   13.20500    0.00000    6.09000    8.04300    8.52900   12.87900 5480.02600   86.63300    0.03000    2.57200    2.56000    2.56400    2.55100
 2887.62500   91.33500    8.00300 2136.57800   34.21100   34.43200   34.88100   34.65000 2887.62500  120.09000    1.10300    0.29500   11.68200    1.39800   13.08000    0.00000    6.28700    6.99600    7.48600   28.21800 5492.45700   87.02600    0.02900    2.59000    2.58500    2.58200    2.57700
 2887.75000   91.05600    7.98600 2142.83100   34.09700   34.33800   34.14300   33.90400 2887.75000  118.51300    1.24900    0.29600   11.51800    1.54500   13.06300    0.00000    6.36400    5.62100    6.11600   24.68200 5484.93400   87.51400    0.03600    2.61400    2.61300    2.60500    2.60400
 2887.87500   89.85900    7.96400 2136.27000   34.38500   34.66000   33.73000   33.46200 2887.87500  117.42300    1.35900    0.27100   11.42400    1.63000   13.05500    0.00000    6.39600    4.50700    5.00600    4.97000 5462.88100   87.84000    0.05300    2.63300    2.64200    2.62400    2.63400
 2888.00000   91.31700    7.94800 2127.88600   34.90000   35.20400   34.79400   34.49500 2888.00000  117.22900    1.41900    0.24300   11.38100    1.66200   13.04300    0.00000    6.47500    4.41400    4.91400  -13.40800 5444.46500   87.98700    0.06700    2.63500    2.66300    2.62600    2.65400
 2888.12500   89.90000    7.94300 2124.72000   35.44900   35.76700   35.69800   35.38100 2888.12500  117.55300    1.41200    0.23000   11.34400    1.64200   12.98700    0.00000    6.46400    5.65200    6.14600  -19.49400 5440.12400   87.92500    0.06700    2.61300    2.64400    2.60500    2.63600
 2888.25000   89.57000    7.95300 2124.69200   35.94600   36.25900   35.46300   35.16800 2888.25000  117.59600    1.34500    0.23500   11.31800    1.57900   12.89800    0.00000    6.74300    7.62500    8.11000  -11.74000 5450.09300   87.77400    0.05300    2.58000    2.57800    2.57100    2.57000
 2888.37500   91.26500    7.97200 2122.90700   36.36700   36.66100   36.99300   36.69700 2888.37500  117.26600    1.30100    0.23800   11.39300    1.54000   12.93300    0.00000    7.42400    9.27500    9.75400    0.46400 5463.86400   87.71800    0.05500    2.55100    2.52800    2.54300    2.52000
 2888.50000   90.95500    7.99200 2119.60400   36.45500   36.72300   37.25100   36.97700 2888.50000  116.95300    1.34900    0.22100   11.63300    1.57000   13.20300    0.00000    8.03800    9.89600   10.37200    7.41800 5471.38700    -999.25    0.08800    2.54100    2.52600    2.53300    2.51800
 2888.62500   91.69000    7.99900 2120.83400   36.11900   36.37300   36.67000   36.41100 2888.62500  116.54700    1.39400    0.17700   11.95500    1.57000   13.52600    0.00000    7.97800    9.40200    9.88100    8.93600 5472.46900    -999.25    0.13800    2.54900    2.55600    2.54100    2.54800
 2888.75000   90.32700    7.99000 2126.16900   35.76200   36.02100   35.64800   35.39200 2888.75000  115.42000    1.27800    0.12000   12.20800    1.39800   13.60700    0.00000    7.27700    8.19400    8.67800   11.85000 5473.66400    -999.25    0.17100    2.57000    2.59800    2.56200    2.59000
 2888.87500   90.33700    7.97500 2125.81500   35.62100   35.89900   35.40000   35.12700 2888.87500  113.09300    0.95100    0.06600   12.27000    1.01700   13.28700    0.00000    6.83300    6.62700    7.11800   16.54600 5475.18700    -999.25    0.15600    2.59700    2.61900    2.58800    2.61000
 2889.00000   91.01500    7.96600 2111.87400   35.61100   35.90200   37.02900   36.71900 2889.00000  110.45000    0.60400    0.02600   12.15700    0.63000   12.78600    0.00000    6.83600    5.01200    5.50900   14.24000 5469.75800    -999.25    0.10200    2.62400    2.62800    2.61600    2.61900
 2889.12500   90.88900    7.96400 2090.30200   35.70500   35.99900   36.08700   35.79100 2889.12500  108.66900    0.40700    0.00500   11.94800    0.41200   12.35900    0.00000    6.76600    3.80800    4.31000    1.59700 5455.84200    -999.25    0.04000    2.64500    2.64800    2.63600    2.64000
 2889.25000   93.03900    7.96600 2080.18100   35.93400   36.23000   35.91400   35.62300 2889.25000  108.58400    0.43700    0.00400   11.73700    0.44100   12.17800    0.00000    6.51400    3.97300    4.47500  -14.72400 5441.14600    -999.25   -0.00500    2.64200    2.65200    2.63300    2.64400
 2889.37500   89.92900    7.96100 2089.01000   36.05600   36.36100   36.47600   36.16800 2889.37500  110.07900    0.57600    0.02600   11.61300    0.60200   12.21600    0.00000    6.55300    5.57600    6.07100  -18.59500 5439.97300    -999.25   -0.01400    2.61500    2.63300    2.60600    2.62500
 2889.50000   90.94800    7.95200 2110.76800   35.71700   36.02700   36.91100   36.58700 2889.50000  112.96400    0.73200    0.08300   11.63200    0.81500   12.44700    0.00000    6.62600    7.83200    8.31600   -6.49500 5453.71800    -999.25    0.00100    2.57600    2.57800    2.56800    2.57000
 2889.62500   89.98500    7.95000 2125.07200   34.95100   35.25300   35.30100   34.99900 2889.62500  116.63000    0.86700    0.17300   11.83200    1.04000   12.87300    0.00000    6.52600    9.36000    9.83700    7.44200 5466.68900    -999.25    0.03600    2.55000    2.52200    2.54200    2.51400
 2889.75000   90.82100    7.95400 2117.65900   34.42200   34.71100   34.26400   33.98200 2889.75000  119.88200    1.00500    0.25800   12.15100    1.26300   13.41500    0.00000    6.24400    9.67300   10.14900    9.73100 5466.66800    -999.25    0.08600    2.54500    2.53700    2.53600    2.52900
 2889.87500   88.81300    7.95500 2093.07300   34.51100   34.80000   33.70000   33.42800 2889.87500  121.85600    1.12700    0.30100   12.49300    1.42700   13.92000    0.00000    6.49600    9.09300    9.57200   -1.18700 5453.99500    -999.25    0.12400    2.55500    2.59200    2.54600    2.58300
 2890.00000   90.13200    7.94600 2076.20200   35.08600   35.39500   35.06500   34.75600 2890.00000  122.63400    1.14200    0.28600   12.70800    1.42800   14.13600    0.00000    6.67900    8.48300    8.96500  -14.36800 5440.98500    -999.25    0.11900    2.56500    2.59800    2.55700    2.58900
 2890.12500   90.94300    7.93300 2076.97600   35.69000   36.02700   36.11700   35.77800 2890.12500  123.01200    1.07100    0.23900   12.75600    1.31000   14.06500    0.00000    6.26500    8.38800    8.86900  -22.81000 5434.35000    -999.25    0.08800    2.56700    2.57200    2.55800    2.56300
 2890.25000   89.84500    7.92700 2085.10900   35.99800   36.34800   36.32100   35.97100 2890.25000  123.31400    1.03500    0.18800   12.66900    1.22200   13.89100    0.00000    6.08800    8.80200    9.28100  -26.29100 5433.84800    -999.25    0.05300    2.55900    2.54500    2.55100    2.53700
 2890.37500   88.17100    7.93700 2082.84900   35.89100   36.22400   36.41300   36.08300 2890.37500  123.22200    1.09300    0.15800   12.53700    1.25100   13.78900    0.00000    6.24800    9.15400    9.63100  -27.09100 5436.50400    -999.25    0.03200    2.55300    2.54100    2.54500    2.53300
 2890.50000   90.76400    7.95900 2072.28900   35.41900   35.71600   36.38500   36.07800 2890.50000  122.42000    1.15000    0.16100   12.40900    1.31100   13.72000    0.00000    6.66700    9.16400    9.64200  -26.93000 5440.09400    -999.25    0.04200    2.55300    2.56200    2.54500    2.55300
 2890.62500   90.61800    7.97200 2065.46600   34.77500   35.04400   35.51400   35.24000 2890.62500  120.91200    1.09200    0.20400   12.30300    1.29500   13.59900    0.00000    6.80100    8.76900    9.25000  -27.47800 5442.82200    -999.25    0.06500    2.56000    2.56300    2.55200    2.55500
 2890.75000   90.17000    7.96600 2064.97400   34.35300   34.62300   34.73700   34.46100 2890.75000  119.17700    0.95900    0.27000   12.22800    1.22900   13.45600    0.00000    6.38600    8.14400    8.62800  -29.42700 5444.57200    -999.25    0.08600    2.57100    2.57500    2.56200    2.56700
