~Version ---------------------------------------------------
VERS. 2.0 : CWLS log ASCII Standard -VERSION 2.0
WRAP.  NO : One line per frame
~Well ------------------------------------------------------
STRT.M            2772.75 : Starting Depth
STOP.M           2907.625 : Ending Depth
STEP.M              0.125 : Level Spacing
NULL.             -999.25 : Absent Value
COMP.            GDF SUEZ : Company
WELL.               L5-15 : Well
FLD .              L5 OIL : Field
LOC . LAT: 53 48'42.03" N : Location
PROV.    NOBLE PIET V EDE : Province
SRVC.         Baker ATLAS : Service Company
LIC .                     : License Number
DATE.         31-MAR-2013 : Log Date
UWI .                     : Unique Well ID
~Curve Information -----------------------------------------
DEPT  .M    99 995 99  1 : Depth
BHT   .DEGC 99 995 99  1 : Borehole temperature
CAL   .IN   70 280 99  1 : Caliper
CHT   .LBF  99 635 99  1 : Cable head tension
CN    .PU   42 890  1  1 : Compensated neutron porosity
CNC   .PU   42 995 99  1 : Borehole size corrected compensated neutron porosity
CNCQH .PU   42 995 99  1 : Borehole size corrected compensated neutron porosity
CNQH  .PU   42 890  1  1 : Compensated neutron porosity
DEPTH .M    99   1 99  1 : System depth
GR    .GAPI 30 310  1  1 : Gamma ray
MBVI  .PU   99 995 99  1 : MR irreducible fluids
MBVM  .PU   99 995 99  1 : MR moveable fluids
MCBW  .PU   99 995 99  1 : MR clay bound porosity fluids
MPHE  .PU   99 995 99  1 : MR effective porosity
MPHS  .PU   99 995 99  1 : MR total porosity
MPRM  .MD   99 995 99  1 : MR permeability
PEQH  .B/E  45 358  1  1 : Photo electric cross-section
PORZ  .PU   45 890 99  1 : Porosity for selectable matrix
PORZC .PU   99 995 99  1 : Corrected porosity
TEN   .LBF  99 635 99  1 : Differential tension
TTEN  .LBF  99 635 99  1 : Total tension
WTBH  .DEGC 99 995 99  1 : Temperature of borehole
ZCORQH.G/C3 45 356 99  1 : Density correction
ZDEN  .G/C3 45 350  1  1 : Formation bulk density
ZDENQH.G/C3 45 350  1  1 : Formation bulk density
ZDNC  .G/C3 94 995 99  1 : Borehole size/mud weight corrected density
ZDNCQH.G/C3 94 995 99  1 : Borehole size/mud weight corrected density
~Params ----------------------------------------------------
HID1.        GAMMA RAY LOG : Header Identifer
HID2.   MAGNETIC RESONANCE : Header Identifer
HID3.         EXPLORER LOG : Header Identifer
CLAB.             RIG NAME : County Label (Comments)
SLAB.              COUNTRY : State Label (Comments)
STAT.          NETHERLANDS : State Or Province
CMT1.          FIELD PRINT : Comment 1
FL1 .                  LON : 04 21'09.62"  E                     : Field Location 1
FL2 .                UTM N : : Field Location 2
FL3 .                UTM E : : Field Location 3
OS1 .     HDIL/XMAC ZDL/CN : Other Services Line 1
OS2 .                  DSL : Other Services Line 2
OS3 .                 GXPL : Other Services Line 3
OS4 .                  BHP : Other Services Line 4
OS5 .                  RCI : Other Services Line 5
PDAT.                  MSL : Permanent Datum
EPD .M                   0 : Elevation Of Perm. Datum
LMF .                   DF : Log Measured From
APD .M                47.5 : Above Permanent Datum
DMF .                   DF : Drilling Measured From
EKB .M                47.5 : Elevation Of Kelly Bushing
EDF .M                47.5 : Elevation Of Derrick Floor
EGL .M               -42.0 : Elevation Of Ground Level
TRIP.                    3 : Trip Number
SON .            13-163585 : Service Order Number
TDD .M              2915.0 : Total Depth - Driller
BLI .M              2880.0 : Bottom Log Interval
TLI .M              2790.0 : Top Log Interval
CSIZ.IN             18.625 : Casing Size
CBDR.M              1666.0 : Casing Bottom - Driller
BS  .IN              8.375 : Bit Size
DFT .                LTOBM : Drilling Fluid Type
DFD .G/C3             1.51 : Drilling Fluid Density
DFV .S                  25 : Drilling Fluid Viscosity
DFL .C3                1.2 : Drilling Fluid Loss
MSS .             FLOWLINE : Mud Sample Source
RMS .OHMM              >10 : Resistivity Of Mud Sample
RMFS.OHMM              >10 : Resistivity Of Mud Filtrate Sample
RMCS.OHMM              >10 : Resistivity Of Mud Cake Sample
MFSS.                   NA : Mud Filtrate Sample Source
MCSS.                   NA : Mud Cake Sample Source
RMB .OHMM              >10 : Mud Resistivity At Bht
TSC .             20.6 HRS : Time Since Circulation
MRT .DEGC             94.6 : Maximum Recorded Temperature
LUN .                 8934 : Logging Unit Number
LUL .           DEN HELDER : Logging Unit Location
ENGI. A. WIEFKERS/M. HEKEL : Engineer's Name
WITN.         P. GERRITSEN : Witness' Name
TSTR.       /GR/MREX/MREX/ : Title Service Mnemonic
TSTG.                   NA : Title Service Mnemonic
STUS.                FINAL : Status
LCNM.          BAKER ATLAS : Logging Company Name
LCC .                  150 : Logging Company Code
OPMD.              OH.WIRE : Operation Mode
PANA. A. WIEFKERS/M. HEKEL : Processing Analyst
PCON.          BAKER ATLAS : Processing Contractor
DATE.          31-MAR-2013 : Date As Month-Day-Year
TRIP.                    4 : Trip Number
SON .            13-163585 : Service Order Number
TDD .M              2915.0 : Total Depth - Driller
BLI .M              2897.6 : Bottom Log Interval
TLI .M              2779.0 : Top Log Interval
CSIZ.IN             18.625 : Casing Size
CBDR.M              1666.0 : Casing Bottom - Driller
BS  .IN              8.375 : Bit Size
DFT .                LTOBM : Drilling Fluid Type
DFD .G/C3             1.51 : Drilling Fluid Density
DFV .S                  25 : Drilling Fluid Viscosity
DFL .C3                1.2 : Drilling Fluid Loss
MSS .             FLOWLINE : Mud Sample Source
RMS .OHMM              >10 : Resistivity Of Mud Sample
RMFS.OHMM              >10 : Resistivity Of Mud Filtrate Sample
RMCS.OHMM              >10 : Resistivity Of Mud Cake Sample
MFSS.                   NA : Mud Filtrate Sample Source
MCSS.                   NA : Mud Cake Sample Source
RMB .OHMM              >10 : Mud Resistivity At Bht
TSC .             29.4 HRS : Time Since Circulation
MRT .DEGC             94.2 : Maximum Recorded Temperature
LUN .                 8934 : Logging Unit Number
LUL .           DEN HELDER : Logging Unit Location
ENGI. A. WIEFKERS/M. HEKEL : Engineer's Name
WITN.         P. GERRITSEN : Witness' Name
APIN.                      : API Serial Number
~Other -----------------------------------------------------
DEPTH AUDIT:
- ALL DEPTHS ARE REFERENCED TO DRILL FLOOR.
- LOG TIED INTO RUN A1 DSL/ORIT/XMAC/WGI/HDIL DATED 30-MAR-2013.
- TOOLS ZEROED ON DRILL FLOOR AT TTRM WRM AT 18.04 M.
GENERAL:
- LAST CIRCULATION ON 30-MAR-2013 AT 09:00 HRS FOR 3 HRS.
- MAXIMUM RECORDED TEMPERATURE FROM TTRM SUB IS 94.6 DEGC AT 2784.4 M
- MAXIMUM RECORDED DEVIATION IS 23.9 DEG AT 2173.605.
- TOOLSTRING RUN  A3 MRCH/EEJ/GR/CN/ZDL/MREX.
- CN/ZDL RECORDED SIMULTANEOUS BUT PRESENTED UNDER SEPARATE HEADINGS.
- ADDITIONAL MUD PROPERTIES: WHOLE MUD SALINITY = 31000 MG/L
CORRECTED SOLIDS = 24 %
YP = 16 LB/100FT2
PV = 25 CP
OIL/WATER RATIO 76/24
LOGGING PASS ABORTED DUE TO MREX COMMINUCATION ISSUES.
NO MREX DATA RECORDED.
DEPTH AUDIT:
- ALL DEPTHS ARE REFERENCED TO DRILL FLOOR.
- LOG TIED INTO RUN A1 DSL/ORIT/XMAC/WGI/HDIL DATED 30-MAR-2013.
- TOOLS ZEROED ON DRILL FLOOR AT TTRM WRM AT 18.04 M
GENERAL:
- LAST CIRCULATION ON 30-MAR-2013 AT 09:00 HRS FOR 3 HRS.
- MAXIMUM RECORDED TEMPERATURE FROM TTRM SUB IS 94.6 DEGC AT 2784.4 M
- MAXIMUM RECORDED DEVIATION IS 23.9 DEG AT 2173.605.
- TOOLSTRING RUN  A3 MRCH/EEJ/GR/CN/ZDL/MREX.
- CN/ZDL RECORDED SIMULTANEOUS BUT PRESENTED UNDER SEPARATE HEADINGS.
- ADDITIONAL MUD PROPERTIES: WHOLE MUD SALINITY = 31000 MG/L
CORRECTED SOLIDS = 24 %
YP = 16 LB/100FT2
PV = 25 CP
OIL/WATER RATIO 76/24
MREX:
- MREX LOGGED IN PP LIGHT OIL.
PARAMETERS USED : TW=11.1 SEC , VRES 0.6M AND AL=6.
DATA RECORDED IN TO PASSES, DUE TO OVERPULL ON THE TOOLSTRING.
DATA FILES SPLICED AT 2837.0M ON CUSTOMERS REQUEST.
#  Curve Data
~ASCII -----------------------------------------------------
# ...
 2786.25000    -999.25    8.37700    -999.25   28.06400   27.79600   30.27400   30.54100    -999.25  105.80300    -999.25    -999.25    -999.25    -999.25    -999.25    -999.25    7.24700   13.39000   13.86200    -999.25    -999.25   88.87800   -0.06100    2.48100    2.47600    2.47300    2.46800
 2786.37500    -999.25    8.34400    -999.25   26.02800   25.79700   28.24300   28.46500    -999.25  106.65400    -999.25    -999.25    -999.25    -999.25    -999.25    -999.25    8.17300   12.66800   13.14300    -999.25    -999.25   89.21400   -0.08200    2.49300    2.46300    2.48500    2.45500
 2786.50000    -999.25    8.30700    -999.25   24.66200   24.47000   23.89200   24.07800    -999.25  107.91000    -999.25    -999.25    -999.25    -999.25    -999.25    -999.25    7.97000   11.27500   11.75600    -999.25    -999.25   89.69300   -0.07500    2.51700    2.48600    2.50900    2.47800
 2786.62500    -999.25    8.27800    -999.25   24.58000   24.41700   23.83600   23.99700    -999.25  109.47200    -999.25    -999.25    -999.25    -999.25    -999.25    -999.25    5.89500    9.33100    9.82000    -999.25    -999.25   89.99100   -0.04200    2.55000    2.54000    2.54200    2.53100
 2786.75000    -999.25    8.26500    -999.25   25.26900   25.11900   25.60500   25.75300    -999.25  110.75600    -999.25    -999.25    -999.25    -999.25    -999.25    -999.25    4.78800    7.16000    7.65900    -999.25    -999.25   89.72300    0.00600    2.58800    2.58300    2.57900    2.57500
 2786.87500    -999.25    8.26300    -999.25   25.79200   25.64400   25.97000   26.11700    -999.25  111.50700    -999.25    -999.25    -999.25    -999.25    -999.25    -999.25    4.48200    5.01500    5.52100    -999.25    -999.25   89.07900    0.07600    2.62400    2.64300    2.61600    2.63400
 2787.00000    -999.25    8.26400    -999.25   25.83500   25.68700   25.65300   25.80100    -999.25  112.24200    -999.25    -999.25    -999.25    -999.25    -999.25    -999.25    4.34500    4.01600    4.52600    -999.25    -999.25   88.54800    0.12400    2.64100    2.69100    2.63300    2.68300
 2787.12500    -999.25    8.25800    -999.25   25.74500   25.60200   25.28600   25.42700    -999.25  113.06500    -999.25    -999.25    -999.25    -999.25    -999.25    -999.25    4.18800    4.56400    5.07200    -999.25    -999.25   88.49000    0.12200    2.63200    2.68400    2.62300    2.67500
 2787.25000    -999.25    8.24900    -999.25   25.68600   25.55300   25.47500   25.60800    -999.25  112.90200    -999.25    -999.25    -999.25    -999.25    -999.25    -999.25    4.14900    6.19500    6.69700    -999.25    -999.25   88.75500    0.08200    2.60400    2.61500    2.59500    2.60600
 2787.37500    -999.25    8.23800    -999.25   25.54600   25.42500   25.80700   25.92600    -999.25  110.16100    -999.25    -999.25    -999.25    -999.25    -999.25    -999.25    4.16800    8.07400    8.56700    -999.25    -999.25   88.98700    0.04100    2.57200    2.54700    2.56300    2.53900
 2787.50000    -999.25    8.23100    -999.25   25.41500   25.30000   25.79100   25.90500    -999.25  105.08800    -999.25    -999.25    -999.25    -999.25    -999.25    -999.25    4.00100   10.06200   10.54600    -999.25    -999.25   88.97100    0.03500    2.53800    2.55300    2.53000    2.54500
 2787.62500    -999.25    8.23700    -999.25   25.51900   25.39800   25.26500   25.38600    -999.25   99.43800    -999.25    -999.25    -999.25    -999.25    -999.25    -999.25    3.96200   12.82500   13.29600    -999.25    -999.25   88.70000    0.03000    2.49100    2.55400    2.48300    2.54600
 2787.75000    -999.25    8.27300    -999.25   26.06100   25.90400   25.85900   26.02700    -999.25   95.75900    -999.25    -999.25    -999.25    -999.25    -999.25    -999.25    4.27300   16.30000   16.75300    -999.25    -999.25   88.32800   -0.00300    2.43100    2.44500    2.42400    2.43700
 2787.87500    -999.25    8.33300    -999.25   26.96100   26.74000   26.04000   26.27200    -999.25   95.13400    -999.25    -999.25    -999.25    -999.25    -999.25    -999.25    4.78700   18.72700   19.16700    -999.25    -999.25   88.01000   -0.02100    2.39000    2.34700    2.38200    2.34000
 2788.00000    -999.25    8.40100    -999.25   28.09100   27.79700   25.88000   26.17300    -999.25   97.26800    -999.25    -999.25    -999.25    -999.25    -999.25    -999.25    4.90800   19.16600   19.60600    -999.25    -999.25   87.85300   -0.01200    2.38200    2.34300    2.37500    2.33600
 2788.12500    -999.25    8.46700    -999.25   28.87800   28.51100   27.60500   27.98800    -999.25  100.58600    -999.25    -999.25    -999.25    -999.25    -999.25    -999.25    4.59400   17.38200   17.83500    -999.25    -999.25   87.92100    0.02000    2.41300    2.41000    2.40500    2.40200
 2788.25000    -999.25    8.54100    -999.25   28.27700   27.83300   29.52600   29.99000    -999.25  103.10100    -999.25    -999.25    -999.25    -999.25    -999.25    -999.25    4.40900   14.93400   15.40400    -999.25    -999.25   88.10500    0.05200    2.45500    2.47500    2.44700    2.46600
 2788.37500    -999.25    8.63200    -999.25   26.02900   25.50900   28.63400   29.18900    -999.25  103.58800    -999.25    -999.25    -999.25    -999.25    -999.25    -999.25    4.31600   12.96200   13.44600    -999.25    -999.25   88.17800    0.06700    2.48800    2.50400    2.48000    2.49600
 2788.50000    -999.25    8.70900    -999.25   23.90400   23.33400   24.28500   24.88300    -999.25  102.24100    -999.25    -999.25    -999.25    -999.25    -999.25    -999.25    4.28700   11.67200   12.16400    -999.25    -999.25   88.11600    0.06500    2.51000    2.52100    2.50200    2.51300
 2788.62500    -999.25    8.71500    -999.25   23.07600   22.51200   21.85500   22.40500    -999.25   99.98900    -999.25    -999.25    -999.25    -999.25    -999.25    -999.25    4.33800   10.66500   11.16300    -999.25    -999.25   88.13700    0.05600    2.52800    2.53700    2.51900    2.52900
 2788.75000    -999.25    8.61500    -999.25   23.50800   23.02800   23.24600   23.71100    -999.25   96.76200    -999.25    -999.25    -999.25    -999.25    -999.25    -999.25    4.25800    9.68300   10.18100    -999.25    -999.25   88.27900    0.03400    2.54400    2.54400    2.53600    2.53500
 2788.87500    -999.25    8.46600    -999.25   23.90800   23.56500   24.82100   25.13600    -999.25   92.10200    -999.25    -999.25    -999.25    -999.25    -999.25    -999.25    4.14100    8.59000    9.08900    -999.25    -999.25   88.35500    0.00800    2.56300    2.55600    2.55500    2.54700
 2789.00000   88.14200    8.34200    -999.25   23.46200   23.23800   24.93100   25.15700    -999.25   86.51000    -999.25    -999.25    -999.25    -999.25    -999.25    -999.25    4.32500    7.47400    7.97400    -999.25    -999.25   88.34800   -0.00800    2.58200    2.58400    2.57400    2.57500
 2789.12500   88.82500    8.28900    -999.25   22.43400   22.26200   22.75300   22.91900    -999.25   82.43700    -999.25    -999.25    -999.25    -999.25    -999.25    -999.25    4.75900    6.83600    7.33700    -999.25    -999.25   88.28300   -0.01400    2.59300    2.60200    2.58500    2.59400
 2789.25000   87.55800    8.27500    -999.25   21.73600   21.57900   21.42800   21.58400    -999.25   82.87500    -999.25    -999.25    -999.25    -999.25    -999.25    -999.25    4.73800    7.15200    7.65000    -999.25    -999.25   88.14700   -0.00800    2.58800    2.60000    2.57900    2.59200
 2789.37500   86.04700    8.27100    -999.25   21.72000   21.56600   21.09900   21.25100    -999.25   88.15700    -999.25    -999.25    -999.25    -999.25    -999.25    -999.25    4.36800    8.30600    8.80000    -999.25    -999.25   87.97000    0.00700    2.56800    2.57900    2.56000    2.57100
 2789.50000   89.77400    8.27200    -999.25   22.34600   22.19100   21.16300   21.31800    -999.25   95.41700    -999.25    -999.25    -999.25    -999.25    -999.25    -999.25    4.35300    9.57900   10.06700    -999.25    -999.25   88.08900    0.02800    2.54600    2.55400    2.53800    2.54600
