~Version ---------------------------------------------------
VERS. 2.0 : CWLS log ASCII Standard -VERSION 2.0
WRAP.  NO : One line per frame
~Well ------------------------------------------------------
STRT.M            2772.75 : Starting Depth
STOP.M           2907.625 : Ending Depth
STEP.M              0.125 : Level Spacing
NULL.             -999.25 : Absent Value
COMP.            GDF SUEZ : Company
WELL.               L5-15 : Well
FLD .              L5 OIL : Field
LOC . LAT: 53 48'42.03" N : Location
PROV.    NOBLE PIET V EDE : Province
SRVC.         Baker ATLAS : Service Company
LIC .                     : License Number
DATE.         31-MAR-2013 : Log Date
UWI .                     : Unique Well ID
~Curve Information -----------------------------------------
DEPT  .M    99 995 99  1 : Depth
BHT   .DEGC 99 995 99  1 : Borehole temperature
CAL   .IN   70 280 99  1 : Caliper
CHT   .LBF  99 635 99  1 : Cable head tension
CN    .PU   42 890  1  1 : Compensated neutron porosity
CNC   .PU   42 995 99  1 : Borehole size corrected compensated neutron porosity
CNCQH .PU   42 995 99  1 : Borehole size corrected compensated neutron porosity
CNQH  .PU   42 890  1  1 : Compensated neutron porosity
DEPTH .M    99   1 99  1 : System depth
GR    .GAPI 30 310  1  1 : Gamma ray
MBVI  .PU   99 995 99  1 : MR irreducible fluids
MBVM  .PU   99 995 99  1 : MR moveable fluids
MCBW  .PU   99 995 99  1 : MR clay bound porosity fluids
MPHE  .PU   99 995 99  1 : MR effective porosity
MPHS  .PU   99 995 99  1 : MR total porosity
MPRM  .MD   99 995 99  1 : MR permeability
PEQH  .B/E  45 358  1  1 : Photo electric cross-section
PORZ  .PU   45 890 99  1 : Porosity for selectable matrix
PORZC .PU   99 995 99  1 : Corrected porosity
TEN   .LBF  99 635 99  1 : Differential tension
TTEN  .LBF  99 635 99  1 : Total tension
WTBH  .DEGC 99 995 99  1 : Temperature of borehole
ZCORQH.G/C3 45 356 99  1 : Density correction
ZDEN  .G/C3 45 350  1  1 : Formation bulk density
ZDENQH.G/C3 45 350  1  1 : Formation bulk density
ZDNC  .G/C3 94 995 99  1 : Borehole size/mud weight corrected density
ZDNCQH.G/C3 94 995 99  1 : Borehole size/mud weight corrected density
~Params ----------------------------------------------------
HID1.        GAMMA RAY LOG : Header Identifer
HID2.   MAGNETIC RESONANCE : Header Identifer
HID3.         EXPLORER LOG : Header Identifer
CLAB.             RIG NAME : County Label (Comments)
SLAB.              COUNTRY : State Label (Comments)
STAT.          NETHERLANDS : State Or Province
CMT1.          FIELD PRINT : Comment 1
FL1 .                  LON : 04 21'09.62"  E                     : Field Location 1
FL2 .                UTM N : : Field Location 2
FL3 .                UTM E : : Field Location 3
OS1 .     HDIL/XMAC ZDL/CN : Other Services Line 1
OS2 .                  DSL : Other Services Line 2
OS3 .                 GXPL : Other Services Line 3
OS4 .                  BHP : Other Services Line 4
OS5 .                  RCI : Other Services Line 5
PDAT.                  MSL : Permanent Datum
EPD .M                   0 : Elevation Of Perm. Datum
LMF .                   DF : Log Measured From
APD .M                47.5 : Above Permanent Datum
DMF .                   DF : Drilling Measured From
EKB .M                47.5 : Elevation Of Kelly Bushing
EDF .M                47.5 : Elevation Of Derrick Floor
EGL .M               -42.0 : Elevation Of Ground Level
TRIP.                    3 : Trip Number
SON .            13-163585 : Service Order Number
TDD .M              2915.0 : Total Depth - Driller
BLI .M              2880.0 : Bottom Log Interval
TLI .M              2790.0 : Top Log Interval
CSIZ.IN             18.625 : Casing Size
CBDR.M              1666.0 : Casing Bottom - Driller
BS  .IN              8.375 : Bit Size
DFT .                LTOBM : Drilling Fluid Type
DFD .G/C3             1.51 : Drilling Fluid Density
DFV .S                  25 : Drilling Fluid Viscosity
DFL .C3                1.2 : Drilling Fluid Loss
MSS .             FLOWLINE : Mud Sample Source
RMS .OHMM              >10 : Resistivity Of Mud Sample
RMFS.OHMM              >10 : Resistivity Of Mud Filtrate Sample
RMCS.OHMM              >10 : Resistivity Of Mud Cake Sample
MFSS.                   NA : Mud Filtrate Sample Source
MCSS.                   NA : Mud Cake Sample Source
RMB .OHMM              >10 : Mud Resistivity At Bht
TSC .             20.6 HRS : Time Since Circulation
MRT .DEGC             94.6 : Maximum Recorded Temperature
LUN .                 8934 : Logging Unit Number
LUL .           DEN HELDER : Logging Unit Location
ENGI. A. WIEFKERS/M. HEKEL : Engineer's Name
WITN.         P. GERRITSEN : Witness' Name
TSTR.       /GR/MREX/MREX/ : Title Service Mnemonic
TSTG.                   NA : Title Service Mnemonic
STUS.                FINAL : Status
LCNM.          BAKER ATLAS : Logging Company Name
LCC .                  150 : Logging Company Code
OPMD.              OH.WIRE : Operation Mode
PANA. A. WIEFKERS/M. HEKEL : Processing Analyst
PCON.          BAKER ATLAS : Processing Contractor
DATE.          31-MAR-2013 : Date As Month-Day-Year
TRIP.                    4 : Trip Number
SON .            13-163585 : Service Order Number
TDD .M              2915.0 : Total Depth - Driller
BLI .M              2897.6 : Bottom Log Interval
TLI .M              2779.0 : Top Log Interval
CSIZ.IN             18.625 : Casing Size
CBDR.M              1666.0 : Casing Bottom - Driller
BS  .IN              8.375 : Bit Size
DFT .                LTOBM : Drilling Fluid Type
DFD .G/C3             1.51 : Drilling Fluid Density
DFV .S                  25 : Drilling Fluid Viscosity
DFL .C3                1.2 : Drilling Fluid Loss
MSS .             FLOWLINE : Mud Sample Source
RMS .OHMM              >10 : Resistivity Of Mud Sample
RMFS.OHMM              >10 : Resistivity Of Mud Filtrate Sample
RMCS.OHMM              >10 : Resistivity Of Mud Cake Sample
MFSS.                   NA : Mud Filtrate Sample Source
MCSS.                   NA : Mud Cake Sample Source
RMB .OHMM              >10 : Mud Resistivity At Bht
TSC .             29.4 HRS : Time Since Circulation
MRT .DEGC             94.2 : Maximum Recorded Temperature
LUN .                 8934 : Logging Unit Number
LUL .           DEN HELDER : Logging Unit Location
ENGI. A. WIEFKERS/M. HEKEL : Engineer's Name
WITN.         P. GERRITSEN : Witness' Name
APIN.                      : API Serial Number
~Other -----------------------------------------------------
DEPTH AUDIT:
- ALL DEPTHS ARE REFERENCED TO DRILL FLOOR.
- LOG TIED INTO RUN A1 DSL/ORIT/XMAC/WGI/HDIL DATED 30-MAR-2013.
- TOOLS ZEROED ON DRILL FLOOR AT TTRM WRM AT 18.04 M.
GENERAL:
- LAST CIRCULATION ON 30-MAR-2013 AT 09:00 HRS FOR 3 HRS.
- MAXIMUM RECORDED TEMPERATURE FROM TTRM SUB IS 94.6 DEGC AT 2784.4 M
- MAXIMUM RECORDED DEVIATION IS 23.9 DEG AT 2173.605.
- TOOLSTRING RUN  A3 MRCH/EEJ/GR/CN/ZDL/MREX.
- CN/ZDL RECORDED SIMULTANEOUS BUT PRESENTED UNDER SEPARATE HEADINGS.
- ADDITIONAL MUD PROPERTIES: WHOLE MUD SALINITY = 31000 MG/L
CORRECTED SOLIDS = 24 %
YP = 16 LB/100FT2
PV = 25 CP
OIL/WATER RATIO 76/24
LOGGING PASS ABORTED DUE TO MREX COMMINUCATION ISSUES.
NO MREX DATA RECORDED.
DEPTH AUDIT:
- ALL DEPTHS ARE REFERENCED TO DRILL FLOOR.
- LOG TIED INTO RUN A1 DSL/ORIT/XMAC/WGI/HDIL DATED 30-MAR-2013.
- TOOLS ZEROED ON DRILL FLOOR AT TTRM WRM AT 18.04 M
GENERAL:
- LAST CIRCULATION ON 30-MAR-2013 AT 09:00 HRS FOR 3 HRS.
- MAXIMUM RECORDED TEMPERATURE FROM TTRM SUB IS 94.6 DEGC AT 2784.4 M
- MAXIMUM RECORDED DEVIATION IS 23.9 DEG AT 2173.605.
- TOOLSTRING RUN  A3 MRCH/EEJ/GR/CN/ZDL/MREX.
- CN/ZDL RECORDED SIMULTANEOUS BUT PRESENTED UNDER SEPARATE HEADINGS.
- ADDITIONAL MUD PROPERTIES: WHOLE MUD SALINITY = 31000 MG/L
CORRECTED SOLIDS = 24 %
YP = 16 LB/100FT2
PV = 25 CP
OIL/WATER RATIO 76/24
MREX:
- MREX LOGGED IN PP LIGHT OIL.
PARAMETERS USED : TW=11.1 SEC , VRES 0.6M AND AL=6.
DATA RECORDED IN TO PASSES, DUE TO OVERPULL ON THE TOOLSTRING.
DATA FILES SPLICED AT 2837.0M ON CUSTOMERS REQUEST.
#  Curve Data
~ASCII -----------------------------------------------------
# ...
 2816.62500   87.82000    8.39900 2166.07500   27.24000   26.94900   27.28400   27.57000 2816.62500  117.29500    4.63500    0.22800    9.05100    4.86300   13.91400    0.00000    4.05500   10.71300   11.20000   14.48500 5412.37000   90.71800    0.02300    2.52700    2.52200    2.51800    2.51400
 2816.75000   90.47300    8.38300 2186.89100   27.17700   26.90300   27.03000   27.30200 2816.75000  114.94000    4.36400    0.22400    8.99800    4.58800   13.58600    0.00000    3.98600   10.02100   10.51100   20.71900 5416.61500   90.63200    0.02600    2.53900    2.54400    2.53000    2.53600
 2816.87500   90.68900    8.37700 2186.98000   27.36600   27.09900   26.63300   26.90000 2816.87500  114.62900    4.14300    0.20700    8.89900    4.35000   13.25000    0.00000    4.05500    9.39200    9.88400    4.43700 5398.04400   90.68600    0.02100    2.54900    2.56200    2.54100    2.55400
 2817.00000   88.42700    8.38500 2167.43100   27.91400   27.63700   26.82000   27.10000 2817.00000  116.82500    4.01700    0.17100    8.80600    4.18900   12.99400    0.00000    4.26200    9.28600    9.77900  -20.94400 5373.25000   90.68800    0.00900    2.55100    2.56100    2.54300    2.55200
 2817.12500   90.04300    8.39700 2144.95500   28.63000   28.34000   27.65000   27.94000 2817.12500  119.97600    3.97300    0.12500    8.76000    4.09800   12.85700    0.00000    4.08700    9.78400   10.27500  -44.29800 5354.32600   90.77000    0.00100    2.54300    2.54300    2.53400    2.53400
 2817.25000   89.26500    8.39700 2130.00600   29.15700   28.86600   28.57400   28.86300 2817.25000  122.25400    4.01400    0.08300    8.82100    4.09700   12.91800    0.00000    3.73000   10.62500   11.11300  -64.97800 5342.51000   90.95400    0.00800    2.52800    2.53000    2.52000    2.52200
 2817.37500   88.78300    8.38500 2126.38900   29.33000   29.05200   29.01600   29.29000 2817.37500  122.82200    4.12900    0.06600    9.01400    4.19500   13.20900    0.00000    3.53200   11.32000   11.80400  -80.62700 5339.83000   90.96100    0.01800    2.51600    2.51900    2.50800    2.51100
 2817.50000   89.92700    8.37400 2138.92400   29.40200   29.13600   29.00500   29.27000 2817.50000  121.89000    4.28700    0.07800    9.28600    4.36500   13.65200    0.00000    3.56700   11.64800   12.13000  -84.30000 5351.81200   90.72300    0.02400    2.51100    2.51300    2.50300    2.50400
 2817.62500   90.15000    8.37600 2174.02700   29.63500   29.36800   29.30400   29.57300 2817.62500  119.97300    4.49500    0.10700    9.55600    4.60200   14.15900    0.00000    3.71800   11.49600   11.97800  -67.72400 5383.42000   90.46600    0.02500    2.51300    2.51200    2.50500    2.50400
 2817.75000   89.44600    8.38900 2218.32200   29.78800   29.50700   29.94100   30.22600 2817.75000  118.22300    4.82400    0.11800    9.75400    4.94200   14.69600    0.00000    3.72900   10.80000   11.28700  -34.36300 5426.72300   90.41900    0.02400    2.52500    2.51800    2.51700    2.50900
 2817.87500   88.80500    8.40300 2256.03400   29.51400   29.21700   30.38500   30.68200 2817.87600  117.23400    5.28500    0.09700    9.83000    5.38200   15.21200    0.00000    3.56400    9.44700    9.94000    5.31500 5468.82600   90.53500    0.02400    2.54800    2.54000    2.54000    2.53100
 2818.00000   90.33000    8.40800 2277.40800   28.80400   28.50100   28.81800   29.12100 2818.00000  116.61500    5.72000    0.05500    9.71100    5.77500   15.48600    0.00000    3.60800    7.55000    8.05100   36.43500 5494.63700   90.65000    0.02600    2.58100    2.57900    2.57200    2.57000
 2818.12500   90.05500    8.40700 2288.32900   28.06500   27.76500   27.80000   28.10100 2818.12500  115.34000    5.96300    0.02000    9.44000    5.98200   15.42200    0.00000    3.98600    5.76200    6.27100   54.79700 5503.83600   90.79000    0.03500    2.61100    2.61400    2.60300    2.60500
 2818.25000   89.74100    8.40800 2289.46300   27.47800   27.17700   27.51000   27.81200 2818.25000  112.93000    5.97000    0.00600    9.09400    5.97700   15.07100    0.00000    4.40700    4.82900    5.34100   57.63000 5496.41200   90.96400    0.05300    2.62700    2.64100    2.61900    2.63200
 2818.37500   89.37000    8.41500 2279.14900   26.80700   26.50000   27.23700   27.54700 2818.37500  109.51400    5.87600    0.03500    8.72500    5.91100   14.63600    0.00000    4.18300    5.23400    5.74400   48.70400 5478.83000   91.06600    0.06300    2.62100    2.64400    2.61200    2.63500
 2818.50000   91.11600    8.42100 2261.34100   25.77900   25.47000   26.57300   26.88500 2818.50000  105.68600    5.86300    0.13400    8.28100    5.99700   14.27800    0.00000    3.94100    6.70100    7.20600   38.75100 5462.69500   90.99000    0.05400    2.59500    2.60900    2.58700    2.60000
 2818.62500   98.69900    8.41800 2242.30300   24.41400   24.11300   25.28500   25.59000 2818.62500  101.82800    6.02400    0.35100    7.69000    6.37500   14.06500    0.00200    4.40900    8.98100    9.47600   30.14000 5450.33700   90.74500    0.04300    2.55600    2.57400    2.54800    2.56500
 2818.75000   89.62200    8.40400 2231.67400   22.80700   22.52800   23.67400   23.95300 2818.75000   97.31400    6.30400    0.75900    6.92200    7.06300   13.98500    0.01600    5.00900   11.59400   12.07700   16.10400 5434.80800   90.64000    0.03500    2.51200    2.52200    2.50300    2.51400
 2818.87500   88.64300    8.37200 2228.76900   21.16100   20.91800   22.75900   23.00800 2818.87500   90.46100    6.54500    1.44500    5.97600    7.99100   13.96600    0.07800    4.56400   13.97900   14.44800   -4.95200 5415.06200   90.85700    0.03400    2.47100    2.46800    2.46300    2.46000
 2819.00000   87.55200    8.32400 2230.68600   19.91500   19.72000   21.15300   21.34600 2819.00000   79.17800    6.59300    2.48000    4.85500    9.07200   13.92700    0.27000    3.90500   15.62900   16.08800  -22.27100 5402.46600   91.21200    0.04200    2.44300    2.44300    2.43500    2.43500
 2819.12500   90.48100    8.27400 2240.79800   19.21200   19.06200   19.30600   19.44800 2819.12500   64.82700    6.42800    3.73300    3.66400   10.16100   13.82500    0.74500    3.49500   16.54200   16.99300  -18.53400 5411.20500   91.36800    0.04700    2.42700    2.43200    2.41900    2.42400
 2819.25000   88.81800    8.24100 2258.77000   18.75200   18.63000   19.81400   19.93800 2819.25000   51.16400    6.12000    5.04500    2.53100   11.16500   13.69500    1.73700    3.28800   17.04800   17.49500    3.61700 5434.68400   91.29900    0.04900    2.41800    2.42800    2.41100    2.42000
 2819.37500   88.58800    8.23000 2271.63800   18.28500   18.17300   18.87200   18.98400 2819.37500   42.85300    5.72300    6.26500    1.60000   11.98800   13.58800    3.53000    3.36000   17.43200   17.87600   27.85600 5453.88200   91.16100    0.04700    2.41200    2.41600    2.40400    2.40800
 2819.50000   89.60500    8.22000 2264.85200   18.01600   17.91300   17.02900   17.12900 2819.50000   40.06700    5.32700    7.28400    0.89900   12.61100   13.51000    5.77900    3.57200   17.74000   18.18200   40.32600 5457.39000   91.05000    0.04300    2.40700    2.40800    2.39900    2.40100
 2819.62500   85.94100    8.20600 2239.76000   18.29300   18.20100   16.66700   16.75600 2819.62500   40.65800    5.06600    7.99800    0.45200   13.06400   13.51500    7.82200    4.03900   17.97200   18.41200   37.56800 5444.83200   90.89600    0.03400    2.40300    2.41200    2.39500    2.40400
 2819.75000   93.97400    8.19600 2208.68300   19.07200   18.98700   18.51500   18.59800 2819.75000   41.76300    5.12600    8.32200    0.28600   13.44800   13.73400    8.83400    4.66000   18.33400   18.77200   18.65300 5418.71400   90.72100    0.01500    2.39600    2.40200    2.38900    2.39400
 2819.87500   90.58000    8.20400 2178.38800   19.73800   19.64700   19.74500   19.83900 2819.87500   42.14500    5.46900    8.38200    0.30400   13.85100   14.15500    8.80800    4.46800   19.00700   19.44000  -12.69400 5385.09000   90.64400    0.00600    2.38500    2.38600    2.37800    2.37900
