~Version ---------------------------------------------------
VERS. 2.0 : CWLS log ASCII Standard -VERSION 2.0
WRAP.  NO : One line per frame
~Well ------------------------------------------------------
STRT.M            2772.75 : Starting Depth
STOP.M           2907.625 : Ending Depth
STEP.M              0.125 : Level Spacing
NULL.             -999.25 : Absent Value
COMP.            GDF SUEZ : Company
WELL.               L5-15 : Well
FLD .              L5 OIL : Field
LOC . LAT: 53 48'42.03" N : Location
PROV.    NOBLE PIET V EDE : Province
SRVC.         Baker ATLAS : Service Company
LIC .                     : License Number
DATE.         31-MAR-2013 : Log Date
UWI .                     : Unique Well ID
~Curve Information -----------------------------------------
DEPT  .M    99 995 99  1 : Depth
BHT   .DEGC 99 995 99  1 : Borehole temperature
CAL   .IN   70 280 99  1 : Caliper
CHT   .LBF  99 635 99  1 : Cable head tension
CN    .PU   42 890  1  1 : Compensated neutron porosity
CNC   .PU   42 995 99  1 : Borehole size corrected compensated neutron porosity
CNCQH .PU   42 995 99  1 : Borehole size corrected compensated neutron porosity
CNQH  .PU   42 890  1  1 : Compensated neutron porosity
DEPTH .M    99   1 99  1 : System depth
GR    .GAPI 30 310  1  1 : Gamma ray
MBVI  .PU   99 995 99  1 : MR irreducible fluids
MBVM  .PU   99 995 99  1 : MR moveable fluids
MCBW  .PU   99 995 99  1 : MR clay bound porosity fluids
MPHE  .PU   99 995 99  1 : MR effective porosity
MPHS  .PU   99 995 99  1 : MR total porosity
MPRM  .MD   99 995 99  1 : MR permeability
PEQH  .B/E  45 358  1  1 : Photo electric cross-section
PORZ  .PU   45 890 99  1 : Porosity for selectable matrix
PORZC .PU   99 995 99  1 : Corrected porosity
TEN   .LBF  99 635 99  1 : Differential tension
TTEN  .LBF  99 635 99  1 : Total tension
WTBH  .DEGC 99 995 99  1 : Temperature of borehole
ZCORQH.G/C3 45 356 99  1 : Density correction
ZDEN  .G/C3 45 350  1  1 : Formation bulk density
ZDENQH.G/C3 45 350  1  1 : Formation bulk density
ZDNC  .G/C3 94 995 99  1 : Borehole size/mud weight corrected density
ZDNCQH.G/C3 94 995 99  1 : Borehole size/mud weight corrected density
~Params ----------------------------------------------------
HID1.        GAMMA RAY LOG : Header Identifer
HID2.   MAGNETIC RESONANCE : Header Identifer
HID3.         EXPLORER LOG : Header Identifer
CLAB.             RIG NAME : County Label (Comments)
SLAB.              COUNTRY : State Label (Comments)
STAT.          NETHERLANDS : State Or Province
CMT1.          FIELD PRINT : Comment 1
FL1 .                  LON : 04 21'09.62"  E                     : Field Location 1
FL2 .                UTM N : : Field Location 2
FL3 .                UTM E : : Field Location 3
OS1 .     HDIL/XMAC ZDL/CN : Other Services Line 1
OS2 .                  DSL : Other Services Line 2
OS3 .                 GXPL : Other Services Line 3
OS4 .                  BHP : Other Services Line 4
OS5 .                  RCI : Other Services Line 5
PDAT.                  MSL : Permanent Datum
EPD .M                   0 : Elevation Of Perm. Datum
LMF .                   DF : Log Measured From
APD .M                47.5 : Above Permanent Datum
DMF .                   DF : Drilling Measured From
EKB .M                47.5 : Elevation Of Kelly Bushing
EDF .M                47.5 : Elevation Of Derrick Floor
EGL .M               -42.0 : Elevation Of Ground Level
TRIP.                    3 : Trip Number
SON .            13-163585 : Service Order Number
TDD .M              2915.0 : Total Depth - Driller
BLI .M              2880.0 : Bottom Log Interval
TLI .M              2790.0 : Top Log Interval
CSIZ.IN             18.625 : Casing Size
CBDR.M              1666.0 : Casing Bottom - Driller
BS  .IN              8.375 : Bit Size
DFT .                LTOBM : Drilling Fluid Type
DFD .G/C3             1.51 : Drilling Fluid Density
DFV .S                  25 : Drilling Fluid Viscosity
DFL .C3                1.2 : Drilling Fluid Loss
MSS .             FLOWLINE : Mud Sample Source
RMS .OHMM              >10 : Resistivity Of Mud Sample
RMFS.OHMM              >10 : Resistivity Of Mud Filtrate Sample
RMCS.OHMM              >10 : Resistivity Of Mud Cake Sample
MFSS.                   NA : Mud Filtrate Sample Source
MCSS.                   NA : Mud Cake Sample Source
RMB .OHMM              >10 : Mud Resistivity At Bht
TSC .             20.6 HRS : Time Since Circulation
MRT .DEGC             94.6 : Maximum Recorded Temperature
LUN .                 8934 : Logging Unit Number
LUL .           DEN HELDER : Logging Unit Location
ENGI. A. WIEFKERS/M. HEKEL : Engineer's Name
WITN.         P. GERRITSEN : Witness' Name
TSTR.       /GR/MREX/MREX/ : Title Service Mnemonic
TSTG.                   NA : Title Service Mnemonic
STUS.                FINAL : Status
LCNM.          BAKER ATLAS : Logging Company Name
LCC .                  150 : Logging Company Code
OPMD.              OH.WIRE : Operation Mode
PANA. A. WIEFKERS/M. HEKEL : Processing Analyst
PCON.          BAKER ATLAS : Processing Contractor
DATE.          31-MAR-2013 : Date As Month-Day-Year
TRIP.                    4 : Trip Number
SON .            13-163585 : Service Order Number
TDD .M              2915.0 : Total Depth - Driller
BLI .M              2897.6 : Bottom Log Interval
TLI .M              2779.0 : Top Log Interval
CSIZ.IN             18.625 : Casing Size
CBDR.M              1666.0 : Casing Bottom - Driller
BS  .IN              8.375 : Bit Size
DFT .                LTOBM : Drilling Fluid Type
DFD .G/C3             1.51 : Drilling Fluid Density
DFV .S                  25 : Drilling Fluid Viscosity
DFL .C3                1.2 : Drilling Fluid Loss
MSS .             FLOWLINE : Mud Sample Source
RMS .OHMM              >10 : Resistivity Of Mud Sample
RMFS.OHMM              >10 : Resistivity Of Mud Filtrate Sample
RMCS.OHMM              >10 : Resistivity Of Mud Cake Sample
MFSS.                   NA : Mud Filtrate Sample Source
MCSS.                   NA : Mud Cake Sample Source
RMB .OHMM              >10 : Mud Resistivity At Bht
TSC .             29.4 HRS : Time Since Circulation
MRT .DEGC             94.2 : Maximum Recorded Temperature
LUN .                 8934 : Logging Unit Number
LUL .           DEN HELDER : Logging Unit Location
ENGI. A. WIEFKERS/M. HEKEL : Engineer's Name
WITN.         P. GERRITSEN : Witness' Name
APIN.                      : API Serial Number
~Other -----------------------------------------------------
DEPTH AUDIT:
- ALL DEPTHS ARE REFERENCED TO DRILL FLOOR.
- LOG TIED INTO RUN A1 DSL/ORIT/XMAC/WGI/HDIL DATED 30-MAR-2013.
- TOOLS ZEROED ON DRILL FLOOR AT TTRM WRM AT 18.04 M.
GENERAL:
- LAST CIRCULATION ON 30-MAR-2013 AT 09:00 HRS FOR 3 HRS.
- MAXIMUM RECORDED TEMPERATURE FROM TTRM SUB IS 94.6 DEGC AT 2784.4 M
- MAXIMUM RECORDED DEVIATION IS 23.9 DEG AT 2173.605.
- TOOLSTRING RUN  A3 MRCH/EEJ/GR/CN/ZDL/MREX.
- CN/ZDL RECORDED SIMULTANEOUS BUT PRESENTED UNDER SEPARATE HEADINGS.
- ADDITIONAL MUD PROPERTIES: WHOLE MUD SALINITY = 31000 MG/L
CORRECTED SOLIDS = 24 %
YP = 16 LB/100FT2
PV = 25 CP
OIL/WATER RATIO 76/24
LOGGING PASS ABORTED DUE TO MREX COMMINUCATION ISSUES.
NO MREX DATA RECORDED.
DEPTH AUDIT:
- ALL DEPTHS ARE REFERENCED TO DRILL FLOOR.
- LOG TIED INTO RUN A1 DSL/ORIT/XMAC/WGI/HDIL DATED 30-MAR-2013.
- TOOLS ZEROED ON DRILL FLOOR AT TTRM WRM AT 18.04 M
GENERAL:
- LAST CIRCULATION ON 30-MAR-2013 AT 09:00 HRS FOR 3 HRS.
- MAXIMUM RECORDED TEMPERATURE FROM TTRM SUB IS 94.6 DEGC AT 2784.4 M
- MAXIMUM RECORDED DEVIATION IS 23.9 DEG AT 2173.605.
- TOOLSTRING RUN  A3 MRCH/EEJ/GR/CN/ZDL/MREX.
- CN/ZDL RECORDED SIMULTANEOUS BUT PRESENTED UNDER SEPARATE HEADINGS.
- ADDITIONAL MUD PROPERTIES: WHOLE MUD SALINITY = 31000 MG/L
CORRECTED SOLIDS = 24 %
YP = 16 LB/100FT2
PV = 25 CP
OIL/WATER RATIO 76/24
MREX:
- MREX LOGGED IN PP LIGHT OIL.
PARAMETERS USED : TW=11.1 SEC , VRES 0.6M AND AL=6.
DATA RECORDED IN TO PASSES, DUE TO OVERPULL ON THE TOOLSTRING.
DATA FILES SPLICED AT 2837.0M ON CUSTOMERS REQUEST.
#  Curve Data
~ASCII -----------------------------------------------------
# ...
 2836.87500   90.74100    8.45500 2115.95300   29.39700   29.04900   25.94600   26.15500 2836.87500  115.17300    3.89200    0.31300   10.21600    4.20500   14.42100    0.00000    4.31200   10.43100   10.92100  -27.74100 5359.72500   91.22400    0.03000    2.53200    2.54000    2.52300    2.53100
 2837.00000   90.87700    8.83900 2135.09600   30.26700   29.49300   26.28400   27.02000 2837.00000  116.93200    3.73300    0.21300   10.52300    3.94600   14.46900    0.00000    4.21500   11.18700   11.68600  -11.46200 5386.36000   92.53600    0.02100    2.51900    2.52800    2.51000    2.51900
 2837.12500   90.49600    9.04600 2133.57100   34.78100   33.73300   28.37100   29.40500 2837.12500  118.25900    3.92100    0.20700   10.79800    4.12800   14.92600    0.00000    4.89200   13.79000   14.28300  -12.27600 5389.19900   92.43100    0.02000    2.47400    2.49100    2.46600    2.48300
 2837.25000   88.99000    9.31800 2131.62700   41.00200   39.59100   36.75400   38.18700 2837.25000  119.08700    3.93800    0.23500   11.73100    4.17300   15.90400    0.00000    7.12500   16.65900   17.14600  -15.23400 5390.54200   92.42200    0.03200    2.42500    2.43800    2.41700    2.43000
 2837.37500   91.36200    9.54000 2143.49200   46.13400   44.44700   45.50300   47.20200 2837.37500  119.64200    3.72900    0.32100   13.21600    4.05000   17.26600    0.00000    9.96600   19.06400   19.54400   -7.84300 5401.80900   92.56800    0.05200    2.38400    2.38400    2.37600    2.37600
 2837.50000   92.05500    9.61200 2172.10500   47.21900   45.44800   42.58700   44.36000 2837.50000  119.70900    3.36400    0.45500   14.77000    3.81900   18.58900    0.00000   11.52900   20.91700   21.38900   18.36700 5427.76600   92.84700    0.07400    2.35200    2.36500    2.34400    2.35700
 2837.62500   91.43700    9.58000 2198.01600   47.16500   45.43200   43.22300   44.95200 2837.62500  118.48700    3.00400    0.58800   15.82800    3.59200   19.42000    0.00100   12.06300   22.97600   23.43400   44.04300 5447.96500   93.14400    0.07500    2.31700    2.35700    2.30900    2.34800
 2837.75000   90.92600    9.53500 2198.90100   48.46300   46.79200   44.45800   46.13500 2837.75000  115.04900    2.72700    0.68100   16.00800    3.40800   19.41600    0.00100   11.96000   25.96300   26.39800   41.15200 5437.17800   93.34800    0.04200    2.26600    2.29200    2.25900    2.28400
 2837.87500   90.26600    9.48600 2172.77500   50.66200   49.07500   47.38300   48.96400 2837.87500  109.62900    2.47800    0.71900   15.42200    3.19600   18.61900    0.00100   11.52900   29.75500   30.15800    9.31200 5401.28600   93.44000    0.00700    2.20100    2.21200    2.19400    2.20500
 2838.00000   90.97400    9.36400 2141.29800   53.03300   51.64200   51.41200   52.79200 2838.00000  103.24300    2.19800    0.70900   14.45300    2.90700   17.36000    0.00100   10.64600   33.59800   33.96400  -24.53800 5369.45100   93.34800   -0.01300    2.13500    2.13900    2.12900    2.13200
 2838.12500   91.01600    9.14000 2125.45100   55.66400   54.63800   52.86500   53.88400 2838.12500   96.93900    1.91300    0.65300   13.44900    2.56600   16.01500    0.00100    8.88600   37.11200   37.43600  -39.93400 5360.79800   92.97000   -0.02200    2.07500    2.07700    2.07000    2.07100
 2838.25000   90.95300    8.91800 2130.24100   58.63600   58.01900   55.52400   56.16500 2838.25000   91.28500    1.69300    0.57100   12.58400    2.26400   14.84700    0.00000    8.15700   40.73100   41.00800  -38.27900 5369.92200   92.55300   -0.02100    2.01400    2.04000    2.00900    2.03500
 2838.37500   89.87600    8.79200 2149.66900   60.93200   60.58600   60.67800   61.02100 2838.37400   86.44800    1.53700    0.48900   11.83600    2.02600   13.86100    0.00000    8.13300   44.86600   45.09400  -28.24400 5385.72000   92.39600   -0.01900    1.94300    1.98200    1.93900    1.97800
 2838.50000   91.26700    8.77000 2174.09200   60.71500   60.39100   63.95200   64.12300 2838.50000   83.42900    1.39500    0.43300   11.16300    1.82700   12.99000    0.00000    7.56200   49.39500   49.56700  -16.76100 5399.74300   92.59700   -0.01500    1.86500    1.89500    1.86200    1.89200
 2838.62500   92.91200    8.77400 2189.66900   58.98600   58.59000   58.95000   59.33700 2838.62500   83.07800    1.25700    0.39900   10.65900    1.65600   12.31500    0.00000    7.37600   52.73200   52.86100   -9.72800 5406.92300   92.78700   -0.01800    1.80800    1.79400    1.80600    1.79200
 2838.75000   90.13800    8.79700 2187.37500   57.61400   57.13500   55.11000   55.65200 2838.75000   84.96000    1.15300    0.37700   10.44200    1.53000   11.97200    0.00000    7.90600   53.75300   53.86900   -9.81800 5406.44000   92.75200   -0.03000    1.79100    1.73800    1.78900    1.73700
 2838.87500   91.43600    8.85900 2170.67000   57.58600   57.01700   55.36700   56.01400 2838.87500   87.67100    1.15200    0.35500   10.55600    1.50700   12.06300    0.00000    8.46200   52.31700   52.45400  -15.41300 5402.36100   92.72300   -0.02700    1.81500    1.80300    1.81300    1.80100
 2839.00000   90.38700    8.92600 2158.36300   57.32100   56.64500   57.54000   58.19300 2839.00000   90.81700    1.26800    0.32900   10.84700    1.59700   12.44400    0.00000    8.36300   50.07600   50.24500  -21.05300 5400.37600   92.86000   -0.01900    1.85400    1.88900    1.85100    1.88500
 2839.12500   89.65200    8.94600 2168.55200   54.94000   54.16400   61.39400   61.92200 2839.12500   95.65100    1.46100    0.31200   11.19200    1.77400   12.96600    0.00000    8.38500   48.21800   48.41000  -21.23500 5404.45300   92.91400   -0.02200    1.88500    1.89000    1.88200    1.88700
 2839.25000   90.80200    8.91500 2199.84700   50.62800   49.80100   56.58900   57.23400 2839.25000  102.79200    1.67200    0.31700   11.52200    1.98900   13.51100    0.00000    7.86100   46.15500   46.37100  -10.71600 5416.71600   92.55100   -0.02700    1.92100    1.88200    1.91700    1.87900
 2839.37500   90.15400    8.89300 2226.11200   46.38600   45.52700   48.50400   49.32600 2839.37500  110.53600    1.86700    0.33900   11.86000    2.20600   14.06600    0.00000    5.77800   42.38500   42.64400    5.63500 5431.24000   92.12800   -0.02200    1.98500    1.93900    1.98100    1.93500
 2839.50000   91.64000    8.92600 2223.59000   43.97100   43.04900   43.74000   44.66700 2839.50000  116.82000    2.03000    0.37800   12.28800    2.40800   14.69600    0.00000    5.26900   36.31800   36.64100   16.67400 5438.21400   92.02900    0.00000    2.08900    2.09700    2.08300    2.09100
 2839.62500   91.78200    9.00400 2201.15900   43.92100   42.89600   40.48100   41.54100 2839.62500  120.52500    2.15300    0.44400   12.85000    2.59600   15.44700    0.00000    8.21800   29.64700   30.03300   16.64100 5435.31700   92.12800    0.02500    2.20300    2.25800    2.19600    2.25100
 2839.75000   89.68600    9.09700 2182.44700   46.21400   45.08200   42.59200   43.74100 2839.75000  121.28100    2.21500    0.53500   13.41900    2.75100   16.17000    0.00000   10.36700   25.51100   25.93400   10.68200 5428.97600   92.13500    0.03300    2.27400    2.31100    2.26700    2.30300
 2839.87500   91.09500    9.17300 2178.38000   50.83200   49.65500   44.99000   46.23500 2839.87500  117.91200    2.20500    0.63100   13.60800    2.83600   16.44300    0.00100   11.06700   25.99900   26.42100    1.94100 5421.84800   92.03400    0.04700    2.26500    2.29300    2.25800    2.28500
 2840.00000   91.83300    9.17500 2176.77100   56.40100   55.35100   52.27000   53.38000 2840.00000  109.70400    2.15800    0.70100   13.12000    2.85900   15.97900    0.00100   10.50400   30.21700   30.60500   -8.95200 5413.63100   92.07200    0.06900    2.19300    2.25600    2.18700    2.24900
 2840.12500   90.97200    9.04300 2172.10700   61.50800   60.82500   58.71000   59.47300 2840.12500   97.41400    2.10800    0.74200   11.98800    2.85000   14.83800    0.00100    8.78000   37.63500   37.94900  -22.34600 5404.21600   92.25600    0.07700    2.06600    2.16600    2.06100    2.16000
