~Version ---------------------------------------------------
VERS. 2.0 : CWLS log ASCII Standard -VERSION 2.0
WRAP.  NO : One line per frame
~Well ------------------------------------------------------
STRT.M            2772.75 : Starting Depth
STOP.M           2907.625 : Ending Depth
STEP.M              0.125 : Level Spacing
NULL.             -999.25 : Absent Value
COMP.            GDF SUEZ : Company
WELL.               L5-15 : Well
FLD .              L5 OIL : Field
LOC . LAT: 53 48'42.03" N : Location
PROV.    NOBLE PIET V EDE : Province
SRVC.         Baker ATLAS : Service Company
LIC .                     : License Number
DATE.         31-MAR-2013 : Log Date
UWI .                     : Unique Well ID
~Curve Information -----------------------------------------
DEPT  .M    99 995 99  1 : Depth
BHT   .DEGC 99 995 99  1 : Borehole temperature
CAL   .IN   70 280 99  1 : Caliper
CHT   .LBF  99 635 99  1 : Cable head tension
CN    .PU   42 890  1  1 : Compensated neutron porosity
CNC   .PU   42 995 99  1 : Borehole size corrected compensated neutron porosity
CNCQH .PU   42 995 99  1 : Borehole size corrected compensated neutron porosity
CNQH  .PU   42 890  1  1 : Compensated neutron porosity
DEPTH .M    99   1 99  1 : System depth
GR    .GAPI 30 310  1  1 : Gamma ray
MBVI  .PU   99 995 99  1 : MR irreducible fluids
MBVM  .PU   99 995 99  1 : MR moveable fluids
MCBW  .PU   99 995 99  1 : MR clay bound porosity fluids
MPHE  .PU   99 995 99  1 : MR effective porosity
MPHS  .PU   99 995 99  1 : MR total porosity
MPRM  .MD   99 995 99  1 : MR permeability
PEQH  .B/E  45 358  1  1 : Photo electric cross-section
PORZ  .PU   45 890 99  1 : Porosity for selectable matrix
PORZC .PU   99 995 99  1 : Corrected porosity
TEN   .LBF  99 635 99  1 : Differential tension
TTEN  .LBF  99 635 99  1 : Total tension
WTBH  .DEGC 99 995 99  1 : Temperature of borehole
ZCORQH.G/C3 45 356 99  1 : Density correction
ZDEN  .G/C3 45 350  1  1 : Formation bulk density
ZDENQH.G/C3 45 350  1  1 : Formation bulk density
ZDNC  .G/C3 94 995 99  1 : Borehole size/mud weight corrected density
ZDNCQH.G/C3 94 995 99  1 : Borehole size/mud weight corrected density
~Params ----------------------------------------------------
HID1.        GAMMA RAY LOG : Header Identifer
HID2.   MAGNETIC RESONANCE : Header Identifer
HID3.         EXPLORER LOG : Header Identifer
CLAB.             RIG NAME : County Label (Comments)
SLAB.              COUNTRY : State Label (Comments)
STAT.          NETHERLANDS : State Or Province
CMT1.          FIELD PRINT : Comment 1
FL1 .                  LON : 04 21'09.62"  E                     : Field Location 1
FL2 .                UTM N : : Field Location 2
FL3 .                UTM E : : Field Location 3
OS1 .     HDIL/XMAC ZDL/CN : Other Services Line 1
OS2 .                  DSL : Other Services Line 2
OS3 .                 GXPL : Other Services Line 3
OS4 .                  BHP : Other Services Line 4
OS5 .                  RCI : Other Services Line 5
PDAT.                  MSL : Permanent Datum
EPD .M                   0 : Elevation Of Perm. Datum
LMF .                   DF : Log Measured From
APD .M                47.5 : Above Permanent Datum
DMF .                   DF : Drilling Measured From
EKB .M                47.5 : Elevation Of Kelly Bushing
EDF .M                47.5 : Elevation Of Derrick Floor
EGL .M               -42.0 : Elevation Of Ground Level
TRIP.                    3 : Trip Number
SON .            13-163585 : Service Order Number
TDD .M              2915.0 : Total Depth - Driller
BLI .M              2880.0 : Bottom Log Interval
TLI .M              2790.0 : Top Log Interval
CSIZ.IN             18.625 : Casing Size
CBDR.M              1666.0 : Casing Bottom - Driller
BS  .IN              8.375 : Bit Size
DFT .                LTOBM : Drilling Fluid Type
DFD .G/C3             1.51 : Drilling Fluid Density
DFV .S                  25 : Drilling Fluid Viscosity
DFL .C3                1.2 : Drilling Fluid Loss
MSS .             FLOWLINE : Mud Sample Source
RMS .OHMM              >10 : Resistivity Of Mud Sample
RMFS.OHMM              >10 : Resistivity Of Mud Filtrate Sample
RMCS.OHMM              >10 : Resistivity Of Mud Cake Sample
MFSS.                   NA : Mud Filtrate Sample Source
MCSS.                   NA : Mud Cake Sample Source
RMB .OHMM              >10 : Mud Resistivity At Bht
TSC .             20.6 HRS : Time Since Circulation
MRT .DEGC             94.6 : Maximum Recorded Temperature
LUN .                 8934 : Logging Unit Number
LUL .           DEN HELDER : Logging Unit Location
ENGI. A. WIEFKERS/M. HEKEL : Engineer's Name
WITN.         P. GERRITSEN : Witness' Name
TSTR.       /GR/MREX/MREX/ : Title Service Mnemonic
TSTG.                   NA : Title Service Mnemonic
STUS.                FINAL : Status
LCNM.          BAKER ATLAS : Logging Company Name
LCC .                  150 : Logging Company Code
OPMD.              OH.WIRE : Operation Mode
PANA. A. WIEFKERS/M. HEKEL : Processing Analyst
PCON.          BAKER ATLAS : Processing Contractor
DATE.          31-MAR-2013 : Date As Month-Day-Year
TRIP.                    4 : Trip Number
SON .            13-163585 : Service Order Number
TDD .M              2915.0 : Total Depth - Driller
BLI .M              2897.6 : Bottom Log Interval
TLI .M              2779.0 : Top Log Interval
CSIZ.IN             18.625 : Casing Size
CBDR.M              1666.0 : Casing Bottom - Driller
BS  .IN              8.375 : Bit Size
DFT .                LTOBM : Drilling Fluid Type
DFD .G/C3             1.51 : Drilling Fluid Density
DFV .S                  25 : Drilling Fluid Viscosity
DFL .C3                1.2 : Drilling Fluid Loss
MSS .             FLOWLINE : Mud Sample Source
RMS .OHMM              >10 : Resistivity Of Mud Sample
RMFS.OHMM              >10 : Resistivity Of Mud Filtrate Sample
RMCS.OHMM              >10 : Resistivity Of Mud Cake Sample
MFSS.                   NA : Mud Filtrate Sample Source
MCSS.                   NA : Mud Cake Sample Source
RMB .OHMM              >10 : Mud Resistivity At Bht
TSC .             29.4 HRS : Time Since Circulation
MRT .DEGC             94.2 : Maximum Recorded Temperature
LUN .                 8934 : Logging Unit Number
LUL .           DEN HELDER : Logging Unit Location
ENGI. A. WIEFKERS/M. HEKEL : Engineer's Name
WITN.         P. GERRITSEN : Witness' Name
APIN.                      : API Serial Number
~Other -----------------------------------------------------
DEPTH AUDIT:
- ALL DEPTHS ARE REFERENCED TO DRILL FLOOR.
- LOG TIED INTO RUN A1 DSL/ORIT/XMAC/WGI/HDIL DATED 30-MAR-2013.
- TOOLS ZEROED ON DRILL FLOOR AT TTRM WRM AT 18.04 M.
GENERAL:
- LAST CIRCULATION ON 30-MAR-2013 AT 09:00 HRS FOR 3 HRS.
- MAXIMUM RECORDED TEMPERATURE FROM TTRM SUB IS 94.6 DEGC AT 2784.4 M
- MAXIMUM RECORDED DEVIATION IS 23.9 DEG AT 2173.605.
- TOOLSTRING RUN  A3 MRCH/EEJ/GR/CN/ZDL/MREX.
- CN/ZDL RECORDED SIMULTANEOUS BUT PRESENTED UNDER SEPARATE HEADINGS.
- ADDITIONAL MUD PROPERTIES: WHOLE MUD SALINITY = 31000 MG/L
CORRECTED SOLIDS = 24 %
YP = 16 LB/100FT2
PV = 25 CP
OIL/WATER RATIO 76/24
LOGGING PASS ABORTED DUE TO MREX COMMINUCATION ISSUES.
NO MREX DATA RECORDED.
DEPTH AUDIT:
- ALL DEPTHS ARE REFERENCED TO DRILL FLOOR.
- LOG TIED INTO RUN A1 DSL/ORIT/XMAC/WGI/HDIL DATED 30-MAR-2013.
- TOOLS ZEROED ON DRILL FLOOR AT TTRM WRM AT 18.04 M
GENERAL:
- LAST CIRCULATION ON 30-MAR-2013 AT 09:00 HRS FOR 3 HRS.
- MAXIMUM RECORDED TEMPERATURE FROM TTRM SUB IS 94.6 DEGC AT 2784.4 M
- MAXIMUM RECORDED DEVIATION IS 23.9 DEG AT 2173.605.
- TOOLSTRING RUN  A3 MRCH/EEJ/GR/CN/ZDL/MREX.
- CN/ZDL RECORDED SIMULTANEOUS BUT PRESENTED UNDER SEPARATE HEADINGS.
- ADDITIONAL MUD PROPERTIES: WHOLE MUD SALINITY = 31000 MG/L
CORRECTED SOLIDS = 24 %
YP = 16 LB/100FT2
PV = 25 CP
OIL/WATER RATIO 76/24
MREX:
- MREX LOGGED IN PP LIGHT OIL.
PARAMETERS USED : TW=11.1 SEC , VRES 0.6M AND AL=6.
DATA RECORDED IN TO PASSES, DUE TO OVERPULL ON THE TOOLSTRING.
DATA FILES SPLICED AT 2837.0M ON CUSTOMERS REQUEST.
#  Curve Data
~ASCII -----------------------------------------------------
# ...
 2806.50000   87.80200    9.76400 2231.62000   38.81900   36.93500   35.06600   37.00600 2806.50000  117.07300    2.00700    0.34500   14.64300    2.35200   16.99500    0.00000   10.25100   18.57500   19.06500   45.49400 5426.01300   89.43700    0.08900    2.39200    2.41000    2.38400    2.40200
 2806.62500   89.72400   10.16200 2210.35000   40.49400   38.16900   37.77500   40.15200 2806.62500  117.67400    1.77700    0.40000   15.95500    2.17700   18.13200    0.00000   10.01800   19.26700   19.76400   27.55100 5401.44000   89.66400    0.07500    2.38100    2.39100    2.37200    2.38300
 2806.75000   87.82700   10.34300 2179.98500   41.90200   39.36900   38.72000   41.24100 2806.75100  116.86200    1.58700    0.45200   17.08900    2.03900   19.12900    0.00000   10.36900   20.49400   20.98900   -2.75700 5369.95900   90.10700    0.06000    2.36000    2.36600    2.35100    2.35700
 2806.87500   88.86800   10.29400 2147.23900   43.01400   40.51200   39.99700   42.46700 2806.87500  116.07800    1.54900    0.51100   17.90300    2.06100   19.96300    0.00000   10.68000   22.15300   22.63800  -38.45600 5340.59700   90.56700    0.04700    2.33100    2.33600    2.32300    2.32800
 2807.00000   88.42200   10.16200 2129.78600   44.51900   42.13600   40.94500   43.29000 2807.00000  116.15300    1.66000    0.58400   18.39800    2.24400   20.64200    0.00000   10.88100   23.79500   24.26600  -65.12900 5326.05300   90.81700    0.03500    2.30300    2.29700    2.29500    2.28900
 2807.12500   89.43200   10.03500 2141.11800   46.68200   44.42300   41.68600   43.92200 2807.12500  117.17500    1.87800    0.66300   18.60400    2.54100   21.14500    0.00100   11.45400   25.18200   25.63900  -71.90100 5334.10600   90.69200    0.03000    2.27900    2.27600    2.27200    2.26800
 2807.25000   89.83000    9.98000 2180.35300   49.17700   46.98400   45.69800   47.88900 2807.25000  118.62300    2.10300    0.72700   18.63100    2.82900   21.46100    0.00100   11.40500   26.43100   26.87700  -56.51900 5362.25000   90.41000    0.02800    2.25800    2.26400    2.25000    2.25700
 2807.37500   88.97800    9.97300 2228.50400   51.12600   48.95600   48.97200   51.13900 2807.37500  119.79500    2.24600    0.75100   18.54900    2.99700   21.54600    0.00100   10.64200   27.72700   28.16400  -26.35700 5400.26600   90.31500    0.02400    2.23600    2.24100    2.22800    2.23300
 2807.50000   89.51400    9.94400 2267.28100   51.89400   49.76700   49.94600   52.06500 2807.50000  120.40400    2.24600    0.72800   18.36200    2.97500   21.33600    0.00100   10.22800   28.92800   29.35500    6.71500 5434.82600   90.50400    0.02400    2.21500    2.21000    2.20800    2.20300
 2807.62500   88.79100    9.91700 2280.76300   51.49600   49.39500   50.05800   52.15300 2807.62500  120.64500    2.10800    0.67700   18.09200    2.78600   20.87800    0.00100    9.28000   29.48700   29.90800   18.15800 5443.32200   90.74600    0.03300    2.20600    2.19400    2.19900    2.18700
 2807.75000   87.85800   10.00300 2268.68200   50.30200   48.09000   49.74500   51.95600 2807.75000  120.55500    1.92600    0.62200   17.83000    2.54800   20.37900    0.00000    7.97300   28.98300   29.41100    2.40600 5424.87500   90.77500    0.05000    2.21400    2.20100    2.20700    2.19300
 2807.87500   89.52500   10.25200 2249.60000   48.53600   46.04000   46.80900   49.35100 2807.87500  120.05100    1.82900    0.58500   17.72200    2.41400   20.13700    0.00000    8.36700   27.21300   27.66200  -13.27300 5409.92300   90.54800    0.06500    2.24500    2.23000    2.23700    2.22200
 2808.00000   87.83900   10.53000 2252.83200   46.56600   43.78600   45.32900   48.17700 2808.00000  119.17400    1.86300    0.57600   17.82400    2.43900   20.26400    0.00000    9.46700   24.78500   25.26000    3.01100 5427.10600   90.17800    0.08000    2.28600    2.30100    2.27800    2.29300
 2808.12500   87.93600   10.71800 2277.19000   44.77600   41.82900   43.23100   46.19700 2808.12500  118.28900    1.96500    0.57200   18.08600    2.53700   20.62200    0.00000    9.84700   22.45800   22.95300   40.23100 5460.60800   89.69900    0.07300    2.32600    2.34800    2.31800    2.33900
 2808.25000   88.37800   10.76900 2294.71700   43.47000   40.49700   40.38300   43.35700 2808.25000  117.99000    2.03700    0.53400   18.39200    2.57100   20.96300    0.00000   10.55600   20.78100   21.28500   59.02100 5469.63300   89.35100    0.04800    2.35500    2.34500    2.34600    2.33600
 2808.37500   88.64700   10.74800 2283.31000   42.50000   39.56500   40.50900   43.45400 2808.37500  118.19600    2.07400    0.45600   18.60600    2.53000   21.13600    0.00000   10.73000   19.60600   20.11600   41.40100 5442.39000   89.37100    0.04000    2.37500    2.36300    2.36600    2.35400
 2808.50000   87.05500   10.69000 2249.03600   41.51100   38.65200   40.37500   43.26800 2808.50000  118.44000    2.12400    0.36600   18.63800    2.49000   21.12800    0.00000   10.40300   18.89200   19.40400    5.36500 5402.03700   89.66100    0.04900    2.38700    2.40000    2.37800    2.39100
 2808.62500   89.49500   10.62700 2217.42700   40.05800   37.29300   38.86400   41.65400 2808.62500  117.88100    2.17600    0.30700   18.40800    2.48400   20.89200    0.00000   10.40500   18.89000   19.40000  -18.84100 5380.23300   89.92000    0.05200    2.38700    2.40000    2.37800    2.39100
 2808.75000   88.31200   10.54900 2203.83900   37.95700   35.32500   36.87600   39.53700 2808.75000  115.99400    2.17600    0.29600   17.97300    2.47200   20.44500    0.00000   10.94100   19.26500   19.77200  -29.01600 5375.63100   90.06700    0.04400    2.38100    2.38000    2.37200    2.37100
 2808.87500   90.10700   10.38200 2207.58700   35.61000   33.20300   35.76700   38.23900 2808.87500  112.47800    2.12600    0.33500   17.36500    2.46100   19.82700    0.00000   11.15000   19.08700   19.59100  -32.96200 5378.08100   90.13800    0.03400    2.38400    2.36400    2.37500    2.35600
 2809.00000   88.51600   10.06900 2215.78200   34.17800   32.10200   31.84800   33.81100 2809.00000  107.06000    2.08500    0.41400   16.56300    2.49900   19.06200    0.00000   10.79400   17.17600   17.68100  -27.95200 5388.33100   90.12200    0.03000    2.41600    2.36600    2.40800    2.35800
 2809.12500   88.08100    9.68000 2212.96400   34.15000   32.44800   30.83800   32.46300 2809.12500  100.56900    2.08800    0.49900   15.62000    2.58700   18.20700    0.00000   11.13600   13.93500   14.44500  -11.65400 5407.73400   90.12100    0.05600    2.47200    2.46200    2.46300    2.45300
 2809.25000   90.13200    9.35000 2195.83600   35.35800   33.97100   33.99300   35.34300 2809.25000   95.10100    2.12100    0.54900   14.72500    2.66900   17.39500    0.00000   11.51000   11.38500   11.89700    2.71600 5423.27100   90.40900    0.09300    2.51500    2.58900    2.50700    2.58000
 2809.37500   87.40400    9.22500 2177.13500   36.72300   35.45400   35.31400   36.58200 2809.37500   93.19400    2.16500    0.52100   14.16400    2.68600   16.85000    0.00000   11.53000   11.49600   12.00400   -5.57000 5416.88100   90.99700    0.08000    2.51300    2.54800    2.50500    2.53900
 2809.50000   87.90500    9.32600 2167.37600   37.54100   36.15100   36.12900   37.53300 2809.50000   95.38300    2.26100    0.43200   14.02900    2.69300   16.72100    0.00000   11.21800   13.08800   13.59300  -28.75000 5398.44800   91.49500    0.06100    2.48600    2.45400    2.47800    2.44600
 2809.62500   87.63500    9.61200 2171.80400   37.77700   36.07200   35.90700   37.66900 2809.62500  100.60100    2.41600    0.34500   14.30300    2.76200   17.06500    0.00000   11.30200   13.92600   14.43400  -42.25000 5392.35700   91.50400    0.07300    2.47200    2.45000    2.46300    2.44200
 2809.75000   89.60400    9.91400 2186.09400   37.92800   35.90500   35.37700   37.44500 2809.75000  106.21000    2.52600    0.32100   14.83800    2.84700   17.68500    0.00000   11.07900   13.74200   14.25800  -38.72900 5403.12200   91.12000    0.09100    2.47500    2.48700    2.46600    2.47800
