~Version ---------------------------------------------------
VERS. 2.0 : CWLS log ASCII Standard -VERSION 2.0
WRAP.  NO : One line per frame
~Well ------------------------------------------------------
STRT.M            2772.75 : Starting Depth
STOP.M           2907.625 : Ending Depth
STEP.M              0.125 : Level Spacing
NULL.             -999.25 : Absent Value
COMP.            GDF SUEZ : Company
WELL.               L5-15 : Well
FLD .              L5 OIL : Field
LOC . LAT: 53 48'42.03" N : Location
PROV.    NOBLE PIET V EDE : Province
SRVC.         Baker ATLAS : Service Company
LIC .                     : License Number
DATE.         31-MAR-2013 : Log Date
UWI .                     : Unique Well ID
~Curve Information -----------------------------------------
DEPT  .M    99 995 99  1 : Depth
BHT   .DEGC 99 995 99  1 : Borehole temperature
CAL   .IN   70 280 99  1 : Caliper
CHT   .LBF  99 635 99  1 : Cable head tension
CN    .PU   42 890  1  1 : Compensated neutron porosity
CNC   .PU   42 995 99  1 : Borehole size corrected compensated neutron porosity
CNCQH .PU   42 995 99  1 : Borehole size corrected compensated neutron porosity
CNQH  .PU   42 890  1  1 : Compensated neutron porosity
DEPTH .M    99   1 99  1 : System depth
GR    .GAPI 30 310  1  1 : Gamma ray
MBVI  .PU   99 995 99  1 : MR irreducible fluids
MBVM  .PU   99 995 99  1 : MR moveable fluids
MCBW  .PU   99 995 99  1 : MR clay bound porosity fluids
MPHE  .PU   99 995 99  1 : MR effective porosity
MPHS  .PU   99 995 99  1 : MR total porosity
MPRM  .MD   99 995 99  1 : MR permeability
PEQH  .B/E  45 358  1  1 : Photo electric cross-section
PORZ  .PU   45 890 99  1 : Porosity for selectable matrix
PORZC .PU   99 995 99  1 : Corrected porosity
TEN   .LBF  99 635 99  1 : Differential tension
TTEN  .LBF  99 635 99  1 : Total tension
WTBH  .DEGC 99 995 99  1 : Temperature of borehole
ZCORQH.G/C3 45 356 99  1 : Density correction
ZDEN  .G/C3 45 350  1  1 : Formation bulk density
ZDENQH.G/C3 45 350  1  1 : Formation bulk density
ZDNC  .G/C3 94 995 99  1 : Borehole size/mud weight corrected density
ZDNCQH.G/C3 94 995 99  1 : Borehole size/mud weight corrected density
~Params ----------------------------------------------------
HID1.        GAMMA RAY LOG : Header Identifer
HID2.   MAGNETIC RESONANCE : Header Identifer
HID3.         EXPLORER LOG : Header Identifer
CLAB.             RIG NAME : County Label (Comments)
SLAB.              COUNTRY : State Label (Comments)
STAT.          NETHERLANDS : State Or Province
CMT1.          FIELD PRINT : Comment 1
FL1 .                  LON : 04 21'09.62"  E                     : Field Location 1
FL2 .                UTM N : : Field Location 2
FL3 .                UTM E : : Field Location 3
OS1 .     HDIL/XMAC ZDL/CN : Other Services Line 1
OS2 .                  DSL : Other Services Line 2
OS3 .                 GXPL : Other Services Line 3
OS4 .                  BHP : Other Services Line 4
OS5 .                  RCI : Other Services Line 5
PDAT.                  MSL : Permanent Datum
EPD .M                   0 : Elevation Of Perm. Datum
LMF .                   DF : Log Measured From
APD .M                47.5 : Above Permanent Datum
DMF .                   DF : Drilling Measured From
EKB .M                47.5 : Elevation Of Kelly Bushing
EDF .M                47.5 : Elevation Of Derrick Floor
EGL .M               -42.0 : Elevation Of Ground Level
TRIP.                    3 : Trip Number
SON .            13-163585 : Service Order Number
TDD .M              2915.0 : Total Depth - Driller
BLI .M              2880.0 : Bottom Log Interval
TLI .M              2790.0 : Top Log Interval
CSIZ.IN             18.625 : Casing Size
CBDR.M              1666.0 : Casing Bottom - Driller
BS  .IN              8.375 : Bit Size
DFT .                LTOBM : Drilling Fluid Type
DFD .G/C3             1.51 : Drilling Fluid Density
DFV .S                  25 : Drilling Fluid Viscosity
DFL .C3                1.2 : Drilling Fluid Loss
MSS .             FLOWLINE : Mud Sample Source
RMS .OHMM              >10 : Resistivity Of Mud Sample
RMFS.OHMM              >10 : Resistivity Of Mud Filtrate Sample
RMCS.OHMM              >10 : Resistivity Of Mud Cake Sample
MFSS.                   NA : Mud Filtrate Sample Source
MCSS.                   NA : Mud Cake Sample Source
RMB .OHMM              >10 : Mud Resistivity At Bht
TSC .             20.6 HRS : Time Since Circulation
MRT .DEGC             94.6 : Maximum Recorded Temperature
LUN .                 8934 : Logging Unit Number
LUL .           DEN HELDER : Logging Unit Location
ENGI. A. WIEFKERS/M. HEKEL : Engineer's Name
WITN.         P. GERRITSEN : Witness' Name
TSTR.       /GR/MREX/MREX/ : Title Service Mnemonic
TSTG.                   NA : Title Service Mnemonic
STUS.                FINAL : Status
LCNM.          BAKER ATLAS : Logging Company Name
LCC .                  150 : Logging Company Code
OPMD.              OH.WIRE : Operation Mode
PANA. A. WIEFKERS/M. HEKEL : Processing Analyst
PCON.          BAKER ATLAS : Processing Contractor
DATE.          31-MAR-2013 : Date As Month-Day-Year
TRIP.                    4 : Trip Number
SON .            13-163585 : Service Order Number
TDD .M              2915.0 : Total Depth - Driller
BLI .M              2897.6 : Bottom Log Interval
TLI .M              2779.0 : Top Log Interval
CSIZ.IN             18.625 : Casing Size
CBDR.M              1666.0 : Casing Bottom - Driller
BS  .IN              8.375 : Bit Size
DFT .                LTOBM : Drilling Fluid Type
DFD .G/C3             1.51 : Drilling Fluid Density
DFV .S                  25 : Drilling Fluid Viscosity
DFL .C3                1.2 : Drilling Fluid Loss
MSS .             FLOWLINE : Mud Sample Source
RMS .OHMM              >10 : Resistivity Of Mud Sample
RMFS.OHMM              >10 : Resistivity Of Mud Filtrate Sample
RMCS.OHMM              >10 : Resistivity Of Mud Cake Sample
MFSS.                   NA : Mud Filtrate Sample Source
MCSS.                   NA : Mud Cake Sample Source
RMB .OHMM              >10 : Mud Resistivity At Bht
TSC .             29.4 HRS : Time Since Circulation
MRT .DEGC             94.2 : Maximum Recorded Temperature
LUN .                 8934 : Logging Unit Number
LUL .           DEN HELDER : Logging Unit Location
ENGI. A. WIEFKERS/M. HEKEL : Engineer's Name
WITN.         P. GERRITSEN : Witness' Name
APIN.                      : API Serial Number
~Other -----------------------------------------------------
DEPTH AUDIT:
- ALL DEPTHS ARE REFERENCED TO DRILL FLOOR.
- LOG TIED INTO RUN A1 DSL/ORIT/XMAC/WGI/HDIL DATED 30-MAR-2013.
- TOOLS ZEROED ON DRILL FLOOR AT TTRM WRM AT 18.04 M.
GENERAL:
- LAST CIRCULATION ON 30-MAR-2013 AT 09:00 HRS FOR 3 HRS.
- MAXIMUM RECORDED TEMPERATURE FROM TTRM SUB IS 94.6 DEGC AT 2784.4 M
- MAXIMUM RECORDED DEVIATION IS 23.9 DEG AT 2173.605.
- TOOLSTRING RUN  A3 MRCH/EEJ/GR/CN/ZDL/MREX.
- CN/ZDL RECORDED SIMULTANEOUS BUT PRESENTED UNDER SEPARATE HEADINGS.
- ADDITIONAL MUD PROPERTIES: WHOLE MUD SALINITY = 31000 MG/L
CORRECTED SOLIDS = 24 %
YP = 16 LB/100FT2
PV = 25 CP
OIL/WATER RATIO 76/24
LOGGING PASS ABORTED DUE TO MREX COMMINUCATION ISSUES.
NO MREX DATA RECORDED.
DEPTH AUDIT:
- ALL DEPTHS ARE REFERENCED TO DRILL FLOOR.
- LOG TIED INTO RUN A1 DSL/ORIT/XMAC/WGI/HDIL DATED 30-MAR-2013.
- TOOLS ZEROED ON DRILL FLOOR AT TTRM WRM AT 18.04 M
GENERAL:
- LAST CIRCULATION ON 30-MAR-2013 AT 09:00 HRS FOR 3 HRS.
- MAXIMUM RECORDED TEMPERATURE FROM TTRM SUB IS 94.6 DEGC AT 2784.4 M
- MAXIMUM RECORDED DEVIATION IS 23.9 DEG AT 2173.605.
- TOOLSTRING RUN  A3 MRCH/EEJ/GR/CN/ZDL/MREX.
- CN/ZDL RECORDED SIMULTANEOUS BUT PRESENTED UNDER SEPARATE HEADINGS.
- ADDITIONAL MUD PROPERTIES: WHOLE MUD SALINITY = 31000 MG/L
CORRECTED SOLIDS = 24 %
YP = 16 LB/100FT2
PV = 25 CP
OIL/WATER RATIO 76/24
MREX:
- MREX LOGGED IN PP LIGHT OIL.
PARAMETERS USED : TW=11.1 SEC , VRES 0.6M AND AL=6.
DATA RECORDED IN TO PASSES, DUE TO OVERPULL ON THE TOOLSTRING.
DATA FILES SPLICED AT 2837.0M ON CUSTOMERS REQUEST.
#  Curve Data
~ASCII -----------------------------------------------------
# ...
 2857.12500   92.21700    8.12400 2239.93700   36.59900   36.68800   37.93200   37.82700 2857.12500  109.52400    2.54400    0.25700    9.92500    2.80100   12.72600    0.00000    4.92400    6.81300    7.30800   16.18200 5504.26000   92.03200    0.00600    2.59400    2.56900    2.58500    2.56000
 2857.25000   92.83200    8.12300 2239.85900   36.46600   36.55500   40.99200   40.84000 2857.25000   98.05000    2.28200    0.29500    9.43700    2.57700   12.01400    0.00000    4.96800    3.32800    3.83600    7.57100 5495.35900   92.03100    0.00600    2.65300    2.65600    2.64400    2.64700
 2857.37500   91.90200    8.12200 2239.01700   35.71000   35.79100   37.69100   37.58600 2857.37500   87.65600    2.11800    0.30200    8.98000    2.42000   11.39900    0.00000    5.00100   -0.16800    0.35200   -4.68300 5483.84500   92.13700    0.00800    2.71300    2.73800    2.70400    2.72900
 2857.50000   92.42800    8.12100 2241.69700   34.99800   35.07300   34.37700   34.31000 2857.50000   82.66000    2.04600    0.28500    8.71800    2.33100   11.04900    0.00000    5.20000   -1.49300   -0.96900   -5.43000 5484.65100   92.06900    0.01400    2.73600    2.76900    2.72700    2.76000
 2857.62500   93.09300    8.11700 2248.94500   34.89200   34.97100   33.64600   33.58000 2857.62500   86.47900    2.08500    0.26600    8.90900    2.35100   11.26000    0.00000    5.27200    0.99600    1.51300    9.58900 5500.02500   91.93300    0.02400    2.69300    2.73500    2.68400    2.72600
 2857.75000   92.57000    8.11300 2253.40300   35.28200   35.37100   32.34300   32.28600 2857.75000   96.06900    2.23000    0.25200    9.48400    2.48200   11.96500    0.00000    5.06300    4.97600    5.47800   25.08200 5514.13500   91.96300    0.02600    2.62500    2.64600    2.61600    2.63700
 2857.87500   92.18700    8.11600 2254.38400   36.11800   36.21200   33.18200   33.12100 2857.87500  107.36300    2.42000    0.25600   10.22600    2.67700   12.90300    0.00000    5.00700    8.40000    8.88800   32.91800 5519.32000   92.13700    0.03100    2.56600    2.55800    2.55800    2.55000
 2858.00000   92.59100    8.12900 2255.30200   37.44500   37.53900   36.63900   36.56100 2858.00000  115.60900    2.53600    0.28900   10.88200    2.82500   13.70800    0.00000    5.54500   10.26900   10.74800   32.14700 5514.93000   92.47700    0.04700    2.53400    2.52800    2.52600    2.52000
 2858.12500   92.77400    8.13800 2254.67400   38.72800   38.82700   38.69100   38.59400 2858.12500  119.77700    2.57700    0.31900   11.36500    2.89600   14.26100    0.00000    6.35000   11.03300   11.50900   27.30200 5505.47900   92.93200    0.06400    2.52100    2.52900    2.51300    2.52100
 2858.25000   92.65800    8.13800 2251.00600   39.23700   39.34300   40.24300   40.12300 2858.25000  120.92000    2.64700    0.30300   11.64300    2.94900   14.59200    0.00000    6.83100   11.16900   11.64500   22.81100 5495.22100   93.22500    0.06900    2.51900    2.52100    2.51100    2.51300
 2858.37500   92.16500    8.13700 2245.37400   38.73200   38.83200   39.99500   39.87900 2858.37500  120.84300    2.83900    0.22700   11.68500    3.06600   14.75000    0.00000    6.55800   10.93800   11.41500   20.57800 5486.39700   93.00200    0.07300    2.52300    2.51600    2.51500    2.50800
 2858.50000   91.94700    8.14200 2234.92700   37.47500   37.55200   38.78300   38.69100 2858.50000  118.42900    3.06000    0.13200   11.49400    3.19200   14.68600    0.00000    5.43700   10.33500   10.81500   18.42500 5477.63400   92.43200    0.07900    2.53300    2.53400    2.52500    2.52600
 2858.62500   93.14600    8.14600 2218.24700   35.87400   35.92600   37.44900   37.37900 2858.62500  110.85600    3.11500    0.06400   11.02400    3.17800   14.20200    0.00000    4.64400    9.16600    9.65100   16.97900 5470.35900   92.18000    0.07900    2.55300    2.56800    2.54500    2.56000
 2858.75000   90.53700    8.14400 2204.97600   34.57200   34.61200   36.76400   36.69800 2858.75000   99.17000    2.90000    0.03100   10.24000    2.93200   13.17200    0.00000    4.24000    7.09000    7.58400   20.12400 5468.20200   92.83200    0.05600    2.58900    2.58200    2.58000    2.57300
 2858.87500   92.26800    8.13800 2205.35300   33.51800   33.55600   35.59700   35.53900 2858.87500   87.71000    2.49000    0.02400    9.25200    2.51400   11.76600    0.00000    4.18300    3.94500    4.45200   29.82100 5471.86500   93.84300    0.02600    2.64300    2.62300    2.63400    2.61500
 2859.00000   91.89200    8.13700 2214.37200   32.40500   32.43300   36.16900   36.10300 2859.00000   82.33700    2.07500    0.03000    8.36900    2.10500   10.47400    0.00000    4.33300    0.44600    0.96500   40.00900 5474.17700   94.20100    0.00300    2.70200    2.70800    2.69400    2.69900
 2859.12500   93.26000    8.14300 2211.66300   31.35500   31.36700   32.42300   32.40400 2859.12500   85.20500    1.87700    0.04400    7.92000    1.92100    9.84100    0.00000    4.66900   -1.16500   -0.64100   40.50400 5466.53400   93.69600   -0.00400    2.73000    2.77500    2.72100    2.76600
 2859.25000   90.30000    8.15000 2191.34700   30.92400   30.92400   28.56500   28.58000 2859.25000   95.02400    1.97500    0.06600    8.00600    2.04100   10.04700    0.00000    5.20800    0.47100    0.99000   28.55900 5448.55700   92.83600    0.01000    2.70200    2.76500    2.69300    2.75600
 2859.37500   92.53100    8.14600 2166.95600   31.92100   31.93500   28.01300   28.02500 2859.37500  107.42100    2.31900    0.07500    8.56900    2.39500   10.96400    0.00000    5.22400    4.26600    4.77200    9.07600 5427.20300   92.22400    0.02000    2.63700    2.66100    2.62800    2.65200
 2859.50000   90.28400    8.13200 2152.05500   34.11300   34.16400   31.50200   31.47300 2859.50000  116.88000    2.71400    0.06000    9.37100    2.77400   12.14500    0.00000    4.62200    7.62500    8.11700  -11.14300 5408.67000   91.83300    0.02200    2.58000    2.57000    2.57100    2.56200
 2859.62500   90.66100    8.12000 2150.32300   36.52400   36.61800   35.97600   35.88900 2859.62500  121.18400    3.00800    0.03200   10.24200    3.04000   13.28200    0.00000    4.36200    9.58200   10.06500  -27.81600 5396.47300   91.62300    0.02300    2.54600    2.54300    2.53800    2.53500
 2859.75000   93.63300    8.12100 2157.85500   37.88400   37.99400   38.42900   38.31500 2859.75000  121.69600    3.08100    0.03600   10.99900    3.11700   14.11700    0.00000    4.52900   10.34800   10.82700  -37.67000 5392.80000   91.74800    0.02300    2.53300    2.53500    2.52500    2.52700
 2859.87500   91.77300    8.13000 2171.72400   38.34400   38.44800   38.62500   38.52100 2859.87500  121.06700    2.95000    0.12100   11.56500    3.07100   14.63600    0.00000    4.58100   10.67000   11.14800  -37.50800 5399.22300   92.07600    0.02500    2.52800    2.52800    2.51900    2.52000
 2860.00000   95.20600    8.14100 2190.65700   38.51500   38.60600   37.98300   37.90200 2860.00000  120.47500    2.70700    0.30900   11.89600    3.01500   14.91100    0.00000    4.50000   10.92200   11.39900  -28.74000 5412.82000   92.35800    0.03000    2.52300    2.52000    2.51500    2.51200
 2860.12500   92.08800    8.14900 2210.18800   38.56300   38.64400   38.78900   38.70800 2860.12500  120.37400    2.52600    0.54100   11.99600    3.06700   15.06300    0.00100    4.54400   10.98400   11.46100  -20.41400 5424.20300   92.43100    0.04100    2.52200    2.51200    2.51400    2.50400
 2860.25000   93.52900    8.15100 2222.16500   38.23900   38.31400   39.52800   39.43700 2860.25000  120.71200    2.50200    0.72500   11.88500    3.22700   15.11300    0.00100    4.83700   10.73600   11.21400  -19.26400 5427.38500   92.30100    0.06100    2.52600    2.52900    2.51800    2.52100
 2860.37500   93.17300    8.14300 2217.08500   37.60900   37.68600   38.21000   38.12400 2860.37500  121.26700    2.67600    0.77600   11.60700    3.45200   15.05900    0.00100    5.06700   10.31400   10.79400  -27.52300 5421.17200   92.01500    0.07700    2.53400    2.55300    2.52500    2.54400
