~Version ---------------------------------------------------
VERS. 2.0 : CWLS log ASCII Standard -VERSION 2.0
WRAP.  NO : One line per frame
~Well ------------------------------------------------------
STRT.M            2772.75 : Starting Depth
STOP.M           2907.625 : Ending Depth
STEP.M              0.125 : Level Spacing
NULL.             -999.25 : Absent Value
COMP.            GDF SUEZ : Company
WELL.               L5-15 : Well
FLD .              L5 OIL : Field
LOC . LAT: 53 48'42.03" N : Location
PROV.    NOBLE PIET V EDE : Province
SRVC.         Baker ATLAS : Service Company
LIC .                     : License Number
DATE.         31-MAR-2013 : Log Date
UWI .                     : Unique Well ID
~Curve Information -----------------------------------------
DEPT  .M    99 995 99  1 : Depth
BHT   .DEGC 99 995 99  1 : Borehole temperature
CAL   .IN   70 280 99  1 : Caliper
CHT   .LBF  99 635 99  1 : Cable head tension
CN    .PU   42 890  1  1 : Compensated neutron porosity
CNC   .PU   42 995 99  1 : Borehole size corrected compensated neutron porosity
CNCQH .PU   42 995 99  1 : Borehole size corrected compensated neutron porosity
CNQH  .PU   42 890  1  1 : Compensated neutron porosity
DEPTH .M    99   1 99  1 : System depth
GR    .GAPI 30 310  1  1 : Gamma ray
MBVI  .PU   99 995 99  1 : MR irreducible fluids
MBVM  .PU   99 995 99  1 : MR moveable fluids
MCBW  .PU   99 995 99  1 : MR clay bound porosity fluids
MPHE  .PU   99 995 99  1 : MR effective porosity
MPHS  .PU   99 995 99  1 : MR total porosity
MPRM  .MD   99 995 99  1 : MR permeability
PEQH  .B/E  45 358  1  1 : Photo electric cross-section
PORZ  .PU   45 890 99  1 : Porosity for selectable matrix
PORZC .PU   99 995 99  1 : Corrected porosity
TEN   .LBF  99 635 99  1 : Differential tension
TTEN  .LBF  99 635 99  1 : Total tension
WTBH  .DEGC 99 995 99  1 : Temperature of borehole
ZCORQH.G/C3 45 356 99  1 : Density correction
ZDEN  .G/C3 45 350  1  1 : Formation bulk density
ZDENQH.G/C3 45 350  1  1 : Formation bulk density
ZDNC  .G/C3 94 995 99  1 : Borehole size/mud weight corrected density
ZDNCQH.G/C3 94 995 99  1 : Borehole size/mud weight corrected density
~Params ----------------------------------------------------
HID1.        GAMMA RAY LOG : Header Identifer
HID2.   MAGNETIC RESONANCE : Header Identifer
HID3.         EXPLORER LOG : Header Identifer
CLAB.             RIG NAME : County Label (Comments)
SLAB.              COUNTRY : State Label (Comments)
STAT.          NETHERLANDS : State Or Province
CMT1.          FIELD PRINT : Comment 1
FL1 .                  LON : 04 21'09.62"  E                     : Field Location 1
FL2 .                UTM N : : Field Location 2
FL3 .                UTM E : : Field Location 3
OS1 .     HDIL/XMAC ZDL/CN : Other Services Line 1
OS2 .                  DSL : Other Services Line 2
OS3 .                 GXPL : Other Services Line 3
OS4 .                  BHP : Other Services Line 4
OS5 .                  RCI : Other Services Line 5
PDAT.                  MSL : Permanent Datum
EPD .M                   0 : Elevation Of Perm. Datum
LMF .                   DF : Log Measured From
APD .M                47.5 : Above Permanent Datum
DMF .                   DF : Drilling Measured From
EKB .M                47.5 : Elevation Of Kelly Bushing
EDF .M                47.5 : Elevation Of Derrick Floor
EGL .M               -42.0 : Elevation Of Ground Level
TRIP.                    3 : Trip Number
SON .            13-163585 : Service Order Number
TDD .M              2915.0 : Total Depth - Driller
BLI .M              2880.0 : Bottom Log Interval
TLI .M              2790.0 : Top Log Interval
CSIZ.IN             18.625 : Casing Size
CBDR.M              1666.0 : Casing Bottom - Driller
BS  .IN              8.375 : Bit Size
DFT .                LTOBM : Drilling Fluid Type
DFD .G/C3             1.51 : Drilling Fluid Density
DFV .S                  25 : Drilling Fluid Viscosity
DFL .C3                1.2 : Drilling Fluid Loss
MSS .             FLOWLINE : Mud Sample Source
RMS .OHMM              >10 : Resistivity Of Mud Sample
RMFS.OHMM              >10 : Resistivity Of Mud Filtrate Sample
RMCS.OHMM              >10 : Resistivity Of Mud Cake Sample
MFSS.                   NA : Mud Filtrate Sample Source
MCSS.                   NA : Mud Cake Sample Source
RMB .OHMM              >10 : Mud Resistivity At Bht
TSC .             20.6 HRS : Time Since Circulation
MRT .DEGC             94.6 : Maximum Recorded Temperature
LUN .                 8934 : Logging Unit Number
LUL .           DEN HELDER : Logging Unit Location
ENGI. A. WIEFKERS/M. HEKEL : Engineer's Name
WITN.         P. GERRITSEN : Witness' Name
TSTR.       /GR/MREX/MREX/ : Title Service Mnemonic
TSTG.                   NA : Title Service Mnemonic
STUS.                FINAL : Status
LCNM.          BAKER ATLAS : Logging Company Name
LCC .                  150 : Logging Company Code
OPMD.              OH.WIRE : Operation Mode
PANA. A. WIEFKERS/M. HEKEL : Processing Analyst
PCON.          BAKER ATLAS : Processing Contractor
DATE.          31-MAR-2013 : Date As Month-Day-Year
TRIP.                    4 : Trip Number
SON .            13-163585 : Service Order Number
TDD .M              2915.0 : Total Depth - Driller
BLI .M              2897.6 : Bottom Log Interval
TLI .M              2779.0 : Top Log Interval
CSIZ.IN             18.625 : Casing Size
CBDR.M              1666.0 : Casing Bottom - Driller
BS  .IN              8.375 : Bit Size
DFT .                LTOBM : Drilling Fluid Type
DFD .G/C3             1.51 : Drilling Fluid Density
DFV .S                  25 : Drilling Fluid Viscosity
DFL .C3                1.2 : Drilling Fluid Loss
MSS .             FLOWLINE : Mud Sample Source
RMS .OHMM              >10 : Resistivity Of Mud Sample
RMFS.OHMM              >10 : Resistivity Of Mud Filtrate Sample
RMCS.OHMM              >10 : Resistivity Of Mud Cake Sample
MFSS.                   NA : Mud Filtrate Sample Source
MCSS.                   NA : Mud Cake Sample Source
RMB .OHMM              >10 : Mud Resistivity At Bht
TSC .             29.4 HRS : Time Since Circulation
MRT .DEGC             94.2 : Maximum Recorded Temperature
LUN .                 8934 : Logging Unit Number
LUL .           DEN HELDER : Logging Unit Location
ENGI. A. WIEFKERS/M. HEKEL : Engineer's Name
WITN.         P. GERRITSEN : Witness' Name
APIN.                      : API Serial Number
~Other -----------------------------------------------------
DEPTH AUDIT:
- ALL DEPTHS ARE REFERENCED TO DRILL FLOOR.
- LOG TIED INTO RUN A1 DSL/ORIT/XMAC/WGI/HDIL DATED 30-MAR-2013.
- TOOLS ZEROED ON DRILL FLOOR AT TTRM WRM AT 18.04 M.
GENERAL:
- LAST CIRCULATION ON 30-MAR-2013 AT 09:00 HRS FOR 3 HRS.
- MAXIMUM RECORDED TEMPERATURE FROM TTRM SUB IS 94.6 DEGC AT 2784.4 M
- MAXIMUM RECORDED DEVIATION IS 23.9 DEG AT 2173.605.
- TOOLSTRING RUN  A3 MRCH/EEJ/GR/CN/ZDL/MREX.
- CN/ZDL RECORDED SIMULTANEOUS BUT PRESENTED UNDER SEPARATE HEADINGS.
- ADDITIONAL MUD PROPERTIES: WHOLE MUD SALINITY = 31000 MG/L
CORRECTED SOLIDS = 24 %
YP = 16 LB/100FT2
PV = 25 CP
OIL/WATER RATIO 76/24
LOGGING PASS ABORTED DUE TO MREX COMMINUCATION ISSUES.
NO MREX DATA RECORDED.
DEPTH AUDIT:
- ALL DEPTHS ARE REFERENCED TO DRILL FLOOR.
- LOG TIED INTO RUN A1 DSL/ORIT/XMAC/WGI/HDIL DATED 30-MAR-2013.
- TOOLS ZEROED ON DRILL FLOOR AT TTRM WRM AT 18.04 M
GENERAL:
- LAST CIRCULATION ON 30-MAR-2013 AT 09:00 HRS FOR 3 HRS.
- MAXIMUM RECORDED TEMPERATURE FROM TTRM SUB IS 94.6 DEGC AT 2784.4 M
- MAXIMUM RECORDED DEVIATION IS 23.9 DEG AT 2173.605.
- TOOLSTRING RUN  A3 MRCH/EEJ/GR/CN/ZDL/MREX.
- CN/ZDL RECORDED SIMULTANEOUS BUT PRESENTED UNDER SEPARATE HEADINGS.
- ADDITIONAL MUD PROPERTIES: WHOLE MUD SALINITY = 31000 MG/L
CORRECTED SOLIDS = 24 %
YP = 16 LB/100FT2
PV = 25 CP
OIL/WATER RATIO 76/24
MREX:
- MREX LOGGED IN PP LIGHT OIL.
PARAMETERS USED : TW=11.1 SEC , VRES 0.6M AND AL=6.
DATA RECORDED IN TO PASSES, DUE TO OVERPULL ON THE TOOLSTRING.
DATA FILES SPLICED AT 2837.0M ON CUSTOMERS REQUEST.
#  Curve Data
~ASCII -----------------------------------------------------
# ...
 2880.75000   89.25900    8.11900 2166.53300   35.88400   35.97200   36.55000   36.45500 2880.75000  106.10000    1.99600    0.47600   11.44300    2.47200   13.91500    0.00000    4.61500    7.06800    7.56200    1.93500 5459.43100   88.92300    0.04400    2.58900    2.59700    2.58100    2.58900
 2880.87500   92.54100    8.12700 2144.99100   35.43500   35.50700   35.35500   35.28700 2880.87500  106.06900    2.00700    0.43400   11.67300    2.44200   14.11400    0.00000    4.63400    6.83800    7.33300  -13.68100 5440.90700   89.53900    0.06600    2.59300    2.61500    2.58500    2.60700
 2881.00000   92.27700    8.14000 2134.25000   35.21900   35.27100   35.16400   35.11700 2881.00000  105.42600    1.99500    0.40000   11.62800    2.39400   14.02300    0.00000    4.52200    7.21700    7.71100  -20.23700 5433.26400   89.71000    0.06200    2.58700    2.60700    2.57800    2.59800
 2881.12500   91.70900    8.14800 2135.66000   35.25900   35.30200   35.05800   35.01800 2881.12500  104.49700    1.98500    0.36600   11.34200    2.35000   13.69300    0.00000    4.47600    7.97100    8.46200  -13.67800 5439.40200   89.69600    0.04100    2.57400    2.56800    2.56500    2.55900
 2881.25000   91.09500    8.14900 2139.11000   35.41300   35.45600   35.13000   35.09100 2881.25000  104.23800    2.04700    0.31300   10.92800    2.36000   13.28800    0.00000    4.59700    8.90800    9.39400    1.66700 5453.45600   89.77300    0.04100    2.55800    2.55400    2.54900    2.54500
 2881.37500   97.55000    8.15300 2138.28800   35.58300   35.62200   35.68300   35.64500 2881.37500  105.51500    2.21400    0.23600   10.57000    2.45100   13.02100    0.00000    4.85600    9.83600   10.31800   14.66300 5463.82200   89.60900    0.05300    2.54200    2.55000    2.53400    2.54100
 2881.50000   90.61400    8.16300 2135.79600   35.92900   35.95800   35.06000   35.04000 2881.50000  108.24900    2.43700    0.14800   10.39200    2.58400   12.97600    0.00000    5.04000   10.53400   11.01300   18.46700 5464.20000   89.02900    0.05900    2.53000    2.53400    2.52200    2.52600
 2881.62500   91.85300    8.17400 2131.57500   36.70800   36.73200   35.41800   35.41100 2881.62500  110.93600    2.60100    0.07100   10.48700    2.67200   13.15900    0.00000    4.91700   10.71700   11.19600   15.49400 5458.23200   88.44300    0.06000    2.52700    2.52400    2.51900    2.51600
 2881.75000   91.94600    8.17700 2121.63300   37.69700   37.72800   37.44400   37.41500 2881.75000  112.22300    2.62400    0.02200   10.77600    2.64600   13.42200    0.00000    4.91700   10.52600   11.00600   11.44900 5452.42000   88.35900    0.05700    2.53000    2.53600    2.52200    2.52800
 2881.87500   90.58600    8.17100 2107.92800   38.41300   38.46100   38.91800   38.86300 2881.87500  112.12300    2.47500    0.00300   11.13500    2.47800   13.61300    0.00000    5.42800   10.11000   10.59100    5.85000 5446.74000   88.78900    0.04700    2.53700    2.54400    2.52900    2.53600
 2882.00000   90.88500    8.16000 2105.17800   38.40100   38.46500   38.68000   38.60900 2882.00000  111.80300    2.22200    0.00000   11.43100    2.22200   13.65300    0.00000    6.11300    9.52300   10.00800    0.58000 5442.33800   89.24100    0.03600    2.54700    2.53900    2.53900    2.53100
 2882.12500   92.51500    8.14600 2116.26800   37.90000   37.97600   38.67800   38.59100 2882.12500  111.82400    1.97000    0.00100   11.63700    1.97100   13.60900    0.00000    6.21400    8.75800    9.24500   -0.40400 5441.30900   89.37500    0.02900    2.56000    2.54000    2.55200    2.53200
 2882.25000   91.17900    8.13400 2131.01700   37.32500   37.41000   37.30300   37.21700 2882.25000  111.89400    1.81700    0.01100   11.76000    1.82800   13.58800    0.00000    5.45300    7.98800    8.47800    3.46800 5442.98200   89.05200    0.04400    2.57300    2.56300    2.56500    2.55500
 2882.37500   90.18400    8.12900 2136.74800   36.97700   37.06500   36.91900   36.83300 2882.37500  111.80700    1.81500    0.03800   11.85900    1.85400   13.71300    0.00000    5.22400    7.59700    8.08900    3.66000 5439.89000   88.50700    0.08900    2.58000    2.60400    2.57200    2.59600
 2882.50000   91.85500    8.13100 2133.01500   36.91400   36.99800   37.12900   37.04400 2882.50000  111.95300    1.91100    0.09100   11.98500    2.00300   13.98800    0.00000    5.75400    7.75000    8.24100   -4.45400 5429.66200   88.14100    0.11900    2.57700    2.60100    2.56900    2.59300
 2882.62500   92.05300    8.13200 2123.70200   37.14500   37.23100   37.06500   36.98000 2882.62500  112.31600    2.01500    0.16000   12.16300    2.17400   14.33800    0.00000    6.15300    8.32800    8.81700  -19.19300 5415.75000   88.22900    0.11900    2.56800    2.57400    2.55900    2.56500
 2882.75000   91.00900    8.12300 2112.13400   37.55900   37.66300   37.07700   36.97700 2882.75000  112.05900    2.03200    0.20300   12.37400    2.23500   14.60900    0.00000    5.83300    8.99700    9.48300  -35.61500 5403.04400   88.63600    0.10500    2.55600    2.55600    2.54800    2.54800
 2882.87500   93.85500    8.10200 2103.81100   37.93800   38.07500   38.05400   37.91700 2882.87500  111.17100    1.93900    0.20300   12.56700    2.14100   14.70800    0.00000    5.51000    9.66000   10.14100  -47.91500 5397.06700   89.04100    0.09600    2.54500    2.55100    2.53700    2.54300
 2883.00000   93.56000    8.06400 2107.12000   37.80500   37.99400   38.96000   38.74300 2883.00000  110.91100    1.79500    0.16900   12.70500    1.96400   14.66900    0.00000    5.55400   10.36900   10.84500  -43.44200 5409.80400   89.09500    0.08700    2.53300    2.53900    2.52500    2.53100
 2883.12500   91.24800    8.01400 2117.16900   37.18400   37.43300   37.88800   37.62000 2883.12500  111.89500    1.69000    0.14500   12.79600    1.83500   14.63000    0.00000    5.78600   11.02200   11.49400  -23.84400 5437.14400   88.88600    0.07700    2.52200    2.51400    2.51300    2.50600
 2883.25000   91.44400    7.96700 2127.99400   36.44600   36.74800   36.62400   36.32200 2883.25000  113.37200    1.61400    0.16300   12.81300    1.77700   14.58900    0.00000    6.39700   11.25800   11.72700   -1.32500 5464.88800   88.73200    0.07800    2.51700    2.50400    2.50900    2.49600
 2883.37500   95.01200    7.94100 2135.33600   36.12800   36.46100   36.17700   35.84300 2883.37500  113.96400    1.49800    0.23000   12.71900    1.72800   14.44700    0.00000    6.76200   10.81000   11.28000    8.80000 5476.74200   88.85900    0.08800    2.52500    2.53200    2.51700    2.52400
 2883.50000   90.66300    7.93300 2136.75200   36.36000   36.70700   36.43100   36.08900 2883.50000  113.81700    1.35800    0.30400   12.56300    1.66200   14.22600    0.00000    6.48600   10.04300   10.51600    5.95700 5473.76200   89.01400    0.08700    2.53800    2.55800    2.53000    2.55000
 2883.62500   90.27300    7.93900 2134.54000   36.87000   37.21800   36.88000   36.53900 2883.62500  113.71300    1.28300    0.33100   12.45600    1.61400   14.07000    0.00000    5.64500    9.41600    9.89300    0.46200 5467.44900   88.96900    0.06800    2.54900    2.55800    2.54100    2.55000
 2883.75000   91.00400    7.95500 2133.47200   37.05200   37.38000   38.35600   38.01900 2883.75000  113.94600    1.27600    0.29100   12.45900    1.56600   14.02600    0.00000    5.17300    9.18700    9.66500    2.80600 5468.27100   88.77200    0.04100    2.55300    2.55000    2.54500    2.54200
 2883.87500   89.81400    7.96900 2135.58200   36.75600   37.06000   37.75500   37.43900 2883.87500  113.96800    1.24500    0.22600   12.50800    1.47100   13.97800    0.00000    5.22000    9.20000    9.67900   10.48500 5473.58600   88.51900    0.01300    2.55300    2.55000    2.54400    2.54100
 2884.00000   91.40200    7.96900 2136.13000   36.18900   36.48400   36.44300   36.14800 2884.00000  112.84500    1.16200    0.18800   12.54400    1.35100   13.89400    0.00000    4.70100    9.27400    9.75200   12.85400 5473.30900   88.15600   -0.00800    2.55100    2.55800    2.54300    2.55000
