~Version ---------------------------------------------------
VERS. 2.0 : CWLS log ASCII Standard -VERSION 2.0
WRAP.  NO : One line per frame
~Well ------------------------------------------------------
STRT.M            2772.75 : Starting Depth
STOP.M           2907.625 : Ending Depth
STEP.M              0.125 : Level Spacing
NULL.             -999.25 : Absent Value
COMP.            GDF SUEZ : Company
WELL.               L5-15 : Well
FLD .              L5 OIL : Field
LOC . LAT: 53 48'42.03" N : Location
PROV.    NOBLE PIET V EDE : Province
SRVC.         Baker ATLAS : Service Company
LIC .                     : License Number
DATE.         31-MAR-2013 : Log Date
UWI .                     : Unique Well ID
~Curve Information -----------------------------------------
DEPT  .M    99 995 99  1 : Depth
BHT   .DEGC 99 995 99  1 : Borehole temperature
CAL   .IN   70 280 99  1 : Caliper
CHT   .LBF  99 635 99  1 : Cable head tension
CN    .PU   42 890  1  1 : Compensated neutron porosity
CNC   .PU   42 995 99  1 : Borehole size corrected compensated neutron porosity
CNCQH .PU   42 995 99  1 : Borehole size corrected compensated neutron porosity
CNQH  .PU   42 890  1  1 : Compensated neutron porosity
DEPTH .M    99   1 99  1 : System depth
GR    .GAPI 30 310  1  1 : Gamma ray
MBVI  .PU   99 995 99  1 : MR irreducible fluids
MBVM  .PU   99 995 99  1 : MR moveable fluids
MCBW  .PU   99 995 99  1 : MR clay bound porosity fluids
MPHE  .PU   99 995 99  1 : MR effective porosity
MPHS  .PU   99 995 99  1 : MR total porosity
MPRM  .MD   99 995 99  1 : MR permeability
PEQH  .B/E  45 358  1  1 : Photo electric cross-section
PORZ  .PU   45 890 99  1 : Porosity for selectable matrix
PORZC .PU   99 995 99  1 : Corrected porosity
TEN   .LBF  99 635 99  1 : Differential tension
TTEN  .LBF  99 635 99  1 : Total tension
WTBH  .DEGC 99 995 99  1 : Temperature of borehole
ZCORQH.G/C3 45 356 99  1 : Density correction
ZDEN  .G/C3 45 350  1  1 : Formation bulk density
ZDENQH.G/C3 45 350  1  1 : Formation bulk density
ZDNC  .G/C3 94 995 99  1 : Borehole size/mud weight corrected density
ZDNCQH.G/C3 94 995 99  1 : Borehole size/mud weight corrected density
~Params ----------------------------------------------------
HID1.        GAMMA RAY LOG : Header Identifer
HID2.   MAGNETIC RESONANCE : Header Identifer
HID3.         EXPLORER LOG : Header Identifer
CLAB.             RIG NAME : County Label (Comments)
SLAB.              COUNTRY : State Label (Comments)
STAT.          NETHERLANDS : State Or Province
CMT1.          FIELD PRINT : Comment 1
FL1 .                  LON : 04 21'09.62"  E                     : Field Location 1
FL2 .                UTM N : : Field Location 2
FL3 .                UTM E : : Field Location 3
OS1 .     HDIL/XMAC ZDL/CN : Other Services Line 1
OS2 .                  DSL : Other Services Line 2
OS3 .                 GXPL : Other Services Line 3
OS4 .                  BHP : Other Services Line 4
OS5 .                  RCI : Other Services Line 5
PDAT.                  MSL : Permanent Datum
EPD .M                   0 : Elevation Of Perm. Datum
LMF .                   DF : Log Measured From
APD .M                47.5 : Above Permanent Datum
DMF .                   DF : Drilling Measured From
EKB .M                47.5 : Elevation Of Kelly Bushing
EDF .M                47.5 : Elevation Of Derrick Floor
EGL .M               -42.0 : Elevation Of Ground Level
TRIP.                    3 : Trip Number
SON .            13-163585 : Service Order Number
TDD .M              2915.0 : Total Depth - Driller
BLI .M              2880.0 : Bottom Log Interval
TLI .M              2790.0 : Top Log Interval
CSIZ.IN             18.625 : Casing Size
CBDR.M              1666.0 : Casing Bottom - Driller
BS  .IN              8.375 : Bit Size
DFT .                LTOBM : Drilling Fluid Type
DFD .G/C3             1.51 : Drilling Fluid Density
DFV .S                  25 : Drilling Fluid Viscosity
DFL .C3                1.2 : Drilling Fluid Loss
MSS .             FLOWLINE : Mud Sample Source
RMS .OHMM              >10 : Resistivity Of Mud Sample
RMFS.OHMM              >10 : Resistivity Of Mud Filtrate Sample
RMCS.OHMM              >10 : Resistivity Of Mud Cake Sample
MFSS.                   NA : Mud Filtrate Sample Source
MCSS.                   NA : Mud Cake Sample Source
RMB .OHMM              >10 : Mud Resistivity At Bht
TSC .             20.6 HRS : Time Since Circulation
MRT .DEGC             94.6 : Maximum Recorded Temperature
LUN .                 8934 : Logging Unit Number
LUL .           DEN HELDER : Logging Unit Location
ENGI. A. WIEFKERS/M. HEKEL : Engineer's Name
WITN.         P. GERRITSEN : Witness' Name
TSTR.       /GR/MREX/MREX/ : Title Service Mnemonic
TSTG.                   NA : Title Service Mnemonic
STUS.                FINAL : Status
LCNM.          BAKER ATLAS : Logging Company Name
LCC .                  150 : Logging Company Code
OPMD.              OH.WIRE : Operation Mode
PANA. A. WIEFKERS/M. HEKEL : Processing Analyst
PCON.          BAKER ATLAS : Processing Contractor
DATE.          31-MAR-2013 : Date As Month-Day-Year
TRIP.                    4 : Trip Number
SON .            13-163585 : Service Order Number
TDD .M              2915.0 : Total Depth - Driller
BLI .M              2897.6 : Bottom Log Interval
TLI .M              2779.0 : Top Log Interval
CSIZ.IN             18.625 : Casing Size
CBDR.M              1666.0 : Casing Bottom - Driller
BS  .IN              8.375 : Bit Size
DFT .                LTOBM : Drilling Fluid Type
DFD .G/C3             1.51 : Drilling Fluid Density
DFV .S                  25 : Drilling Fluid Viscosity
DFL .C3                1.2 : Drilling Fluid Loss
MSS .             FLOWLINE : Mud Sample Source
RMS .OHMM              >10 : Resistivity Of Mud Sample
RMFS.OHMM              >10 : Resistivity Of Mud Filtrate Sample
RMCS.OHMM              >10 : Resistivity Of Mud Cake Sample
MFSS.                   NA : Mud Filtrate Sample Source
MCSS.                   NA : Mud Cake Sample Source
RMB .OHMM              >10 : Mud Resistivity At Bht
TSC .             29.4 HRS : Time Since Circulation
MRT .DEGC             94.2 : Maximum Recorded Temperature
LUN .                 8934 : Logging Unit Number
LUL .           DEN HELDER : Logging Unit Location
ENGI. A. WIEFKERS/M. HEKEL : Engineer's Name
WITN.         P. GERRITSEN : Witness' Name
APIN.                      : API Serial Number
~Other -----------------------------------------------------
DEPTH AUDIT:
- ALL DEPTHS ARE REFERENCED TO DRILL FLOOR.
- LOG TIED INTO RUN A1 DSL/ORIT/XMAC/WGI/HDIL DATED 30-MAR-2013.
- TOOLS ZEROED ON DRILL FLOOR AT TTRM WRM AT 18.04 M.
GENERAL:
- LAST CIRCULATION ON 30-MAR-2013 AT 09:00 HRS FOR 3 HRS.
- MAXIMUM RECORDED TEMPERATURE FROM TTRM SUB IS 94.6 DEGC AT 2784.4 M
- MAXIMUM RECORDED DEVIATION IS 23.9 DEG AT 2173.605.
- TOOLSTRING RUN  A3 MRCH/EEJ/GR/CN/ZDL/MREX.
- CN/ZDL RECORDED SIMULTANEOUS BUT PRESENTED UNDER SEPARATE HEADINGS.
- ADDITIONAL MUD PROPERTIES: WHOLE MUD SALINITY = 31000 MG/L
CORRECTED SOLIDS = 24 %
YP = 16 LB/100FT2
PV = 25 CP
OIL/WATER RATIO 76/24
LOGGING PASS ABORTED DUE TO MREX COMMINUCATION ISSUES.
NO MREX DATA RECORDED.
DEPTH AUDIT:
- ALL DEPTHS ARE REFERENCED TO DRILL FLOOR.
- LOG TIED INTO RUN A1 DSL/ORIT/XMAC/WGI/HDIL DATED 30-MAR-2013.
- TOOLS ZEROED ON DRILL FLOOR AT TTRM WRM AT 18.04 M
GENERAL:
- LAST CIRCULATION ON 30-MAR-2013 AT 09:00 HRS FOR 3 HRS.
- MAXIMUM RECORDED TEMPERATURE FROM TTRM SUB IS 94.6 DEGC AT 2784.4 M
- MAXIMUM RECORDED DEVIATION IS 23.9 DEG AT 2173.605.
- TOOLSTRING RUN  A3 MRCH/EEJ/GR/CN/ZDL/MREX.
- CN/ZDL RECORDED SIMULTANEOUS BUT PRESENTED UNDER SEPARATE HEADINGS.
- ADDITIONAL MUD PROPERTIES: WHOLE MUD SALINITY = 31000 MG/L
CORRECTED SOLIDS = 24 %
YP = 16 LB/100FT2
PV = 25 CP
OIL/WATER RATIO 76/24
MREX:
- MREX LOGGED IN PP LIGHT OIL.
PARAMETERS USED : TW=11.1 SEC , VRES 0.6M AND AL=6.
DATA RECORDED IN TO PASSES, DUE TO OVERPULL ON THE TOOLSTRING.
DATA FILES SPLICED AT 2837.0M ON CUSTOMERS REQUEST.
#  Curve Data
~ASCII -----------------------------------------------------
# ...
 2843.62500   93.23800    8.19100 2217.06000   30.92900   30.88000   28.39900   28.46100 2843.62500   93.26700    2.19900    0.35700    5.32100    2.55600    7.87700    0.00000    7.72100   10.41500   10.89600  -28.80300 5442.70700   93.08200    0.07800    2.53200    2.55400    2.52400    2.54600
 2843.75000   91.50300    8.19800 2254.07200   33.84800   33.81200   30.28900   30.35300 2843.75000  104.91000    2.56800    0.33600    6.53000    2.90300    9.43400    0.00000    6.82900   12.59600   13.06600   11.28400 5483.84100   92.99700    0.09800    2.49500    2.49900    2.48700    2.49100
 2843.87500   92.93700    8.20800 2282.62000   35.14000   35.10300   33.75100   33.80100 2843.87500  111.41300    3.02300    0.34500    7.93800    3.36900   11.30700    0.00000    5.43400   13.59200   14.05800   49.47900 5515.70500   92.90900    0.09300    2.47800    2.48800    2.47000    2.48000
 2844.00000   92.04400    8.21500 2283.81100   35.66900   35.62700   37.07100   37.09900 2844.00000  113.71600    3.50000    0.37500    9.36200    3.87500   13.23700    0.00000    5.10300   13.78900   14.25400   59.97500 5514.69200   92.79700    0.06400    2.47400    2.47600    2.46600    2.46800
 2844.12500   90.77400    8.22000 2261.70300   35.47900   35.43000   36.31300   36.35500 2844.12500  113.57300    3.91900    0.40600   10.53600    4.32500   14.86200    0.00000    5.37200   13.50900   13.97500   45.89000 5489.31200   92.66300    0.03200    2.47900    2.46100    2.47100    2.45400
 2844.25000   91.21600    8.22000 2231.36200   34.78500   34.73000   35.35500   35.40400 2844.25000  111.86200    4.22300    0.42100   11.29300    4.64400   15.93700    0.00000    5.44200   12.96200   13.43100   28.84000 5463.84800   92.68800    0.02500    2.48800    2.47900    2.48000    2.47100
 2844.37500   93.46400    8.21100 2204.13200   33.69500   33.64200   35.87800   35.91000 2844.37500  109.05700    4.39500    0.40800   11.47700    4.80300   16.28000    0.00000    5.07400   12.40100   12.87300   19.42700 5449.28700   92.87600    0.03200    2.49800    2.50500    2.49000    2.49700
 2844.50000   91.89000    8.20200 2187.83200   32.18800   32.13400   33.90500   33.94300 2844.50000  106.09000    4.48100    0.36800   11.11000    4.85000   15.96000    0.00000    4.49100   12.18700   12.66000   13.83000 5440.26900   92.92100    0.04000    2.50200    2.52300    2.49400    2.51500
 2844.62500   92.18200    8.19800 2180.32200   30.52200   30.46300   31.91700   31.96700 2844.62500  103.66300    4.53800    0.31600   10.36700    4.85400   15.22000    0.00000    4.01600   12.42300   12.89400    8.36600 5431.82300   92.75500    0.03400    2.49800    2.50600    2.49000    2.49800
 2844.75000   90.98400    8.20000 2173.63600   29.34500   29.27700   30.03700   30.10200 2844.75000  102.37200    4.66300    0.27100    9.50400    4.93400   14.43900    0.00000    3.72800   12.98100   13.44900    8.51000 5428.61500   92.56300    0.02100    2.48800    2.48700    2.48000    2.47900
 2844.87500   91.53800    8.20500 2168.16700   28.93800   28.86200   28.28800   28.36700 2844.87500  102.30500    4.89900    0.24000    8.76800    5.13900   13.90700    0.00000    3.62800   13.50900   13.97400   20.01000 5435.69600   92.49000    0.00200    2.47900    2.47500    2.47100    2.46700
 2845.00000   91.07900    8.20700 2168.62300   29.20100   29.12400   28.49800   28.57800 2845.00000  103.23400    5.19000    0.22400    8.28500    5.41300   13.69800    0.00000    3.73400   13.79000   14.25400   36.05300 5445.80700   92.41900   -0.00800    2.47400    2.47100    2.46600    2.46300
 2845.12500   91.72500    8.20400 2170.71700   29.87200   29.80100   29.44200   29.51400 2845.12500  104.62500    5.40700    0.22500    8.11200    5.63200   13.74300    0.00000    3.94800   13.70500   14.17000   38.56400 5441.68800   92.25900   -0.00200    2.47600    2.46800    2.46800    2.46000
 2845.25000   90.09200    8.20500 2164.11400   30.79100   30.72600   29.72700   29.79900 2845.25000  106.09500    5.50600    0.23200    8.16300    5.73800   13.90100    0.00000    4.03500   13.44400   13.91000   21.00000 5419.22900   92.10800    0.02300    2.48000    2.47700    2.47200    2.46900
 2845.37500   88.67500    8.21500 2146.72000   32.08200   32.01200   30.42000   30.50100 2845.37500  107.73900    5.49300    0.22800    8.40200    5.72100   14.12200    0.00000    4.10500   13.21300   13.68000   -9.07800 5388.36000   92.02600    0.05900    2.48400    2.49400    2.47600    2.48600
 2845.50000   89.87100    8.23200 2129.91600   33.56400   33.48200   32.56400   32.65700 2845.50000  109.73200    5.31300    0.20500    8.80100    5.51800   14.32000    0.00000    4.73200   13.35400   13.82200  -31.29400 5370.15300   92.06000    0.08700    2.48200    2.50200    2.47400    2.49400
 2845.62500   91.98900    8.24100 2124.44900   34.67000   34.58600   33.97500   34.06400 2845.62500  111.83600    4.91900    0.17500    9.31900    5.09400   14.41400    0.00000    6.28800   13.93900   14.40400  -35.41400 5372.52100   92.22000    0.09000    2.47200    2.48800    2.46400    2.48000
 2845.75000   90.45500    8.23500 2137.10400   35.15100   35.07900   34.47100   34.54600 2845.75000  113.62600    4.31400    0.14800    9.96200    4.46300   14.42500    0.00000    7.09900   14.57800   15.03900  -21.17500 5392.88400   92.45600    0.08300    2.46100    2.44100    2.45300    2.43300
 2845.87500   90.72900    8.22400 2167.30400   35.53100   35.47700   34.41300   34.47400 2845.87500  114.85400    3.63900    0.12400   10.76800    3.76300   14.53100    0.00000    6.01300   14.61400   15.07500    2.56000 5418.97900   92.62500    0.11500    2.46000    2.43700    2.45200    2.42900
 2846.00000   90.66900    8.22000 2199.07600   36.06900   36.02600   35.89900   35.94300 2846.00000  115.72900    3.04300    0.09800   11.69100    3.14100   14.83200    0.00000    5.01900   14.03600   14.49900   27.25800 5440.87600   92.61200    0.16700    2.47000    2.49400    2.46200    2.48600
 2846.12500   90.48000    8.21800 2208.05400   36.58200   36.54500   36.84200   36.87500 2846.12500  116.60100    2.63800    0.07200   12.53200    2.71000   15.24200    0.00000    4.91600   13.37300   13.84000   44.63200 5450.63800   92.35500    0.17400    2.48100    2.52500    2.47300    2.51700
 2846.25000   91.00600    8.21200 2190.06100   36.81500   36.79000   36.82700   36.84900 2846.25000  117.49100    2.41900    0.04500   13.05000    2.46500   15.51500    0.00000    4.77600   13.22100   13.68800   46.79300 5443.99700   92.02400    0.13100    2.48400    2.50800    2.47600    2.50000
 2846.37500   93.22300    8.20000 2163.24300   36.69500   36.68400   36.96000   36.96800 2846.37500  118.13000    2.34000    0.02100   13.20700    2.36100   15.56900    0.00000    4.13000   13.52000   13.98500   35.29900 5425.29500   91.76700    0.06500    2.47900    2.46000    2.47100    2.45200
 2846.50000   89.74500    8.19400 2152.32500   36.13100   36.12200   37.04000   37.04000 2846.50000  118.31500    2.34300    0.00600   13.10800    2.34900   15.45700    0.00000    3.87900   13.81200   14.27600   23.82200 5409.16400   91.74900    0.00300    2.47400    2.45900    2.46600    2.45100
 2846.62500   92.71100    8.20500 2155.48100   35.38500   35.35400   35.75400   35.78500 2846.62500  118.22800    2.36900    0.00000   12.95500    2.37000   15.32400    0.00000    4.27400   14.01600   14.47900   20.38700 5402.10300   91.80500   -0.03000    2.47000    2.49700    2.46200    2.48900
 2846.75000   92.03000    8.22900 2162.99000   34.89700   34.83000   34.37500   34.44700 2846.75000  117.74800    2.38600    0.00000   12.83600    2.38600   15.22200    0.00000    4.50800   14.11200   14.57600   22.39600 5400.56500   91.74800   -0.04300    2.46900    2.47400    2.46100    2.46600
 2846.87500   92.13600    8.25300 2164.23400   35.10100   35.00500   34.63300   34.73800 2846.87500  115.72900    2.38800    0.00000   12.75700    2.38800   15.14500    0.00000    4.49300   13.95500   14.42100   19.63600 5394.43800   91.69600   -0.02400    2.47100    2.43700    2.46300    2.42900
