~Version ---------------------------------------------------
VERS. 2.0 : CWLS log ASCII Standard -VERSION 2.0
WRAP.  NO : One line per frame
~Well ------------------------------------------------------
STRT.M            2772.75 : Starting Depth
STOP.M           2907.625 : Ending Depth
STEP.M              0.125 : Level Spacing
NULL.             -999.25 : Absent Value
COMP.            GDF SUEZ : Company
WELL.               L5-15 : Well
FLD .              L5 OIL : Field
LOC . LAT: 53 48'42.03" N : Location
PROV.    NOBLE PIET V EDE : Province
SRVC.         Baker ATLAS : Service Company
LIC .                     : License Number
DATE.         31-MAR-2013 : Log Date
UWI .                     : Unique Well ID
~Curve Information -----------------------------------------
DEPT  .M    99 995 99  1 : Depth
BHT   .DEGC 99 995 99  1 : Borehole temperature
CAL   .IN   70 280 99  1 : Caliper
CHT   .LBF  99 635 99  1 : Cable head tension
CN    .PU   42 890  1  1 : Compensated neutron porosity
CNC   .PU   42 995 99  1 : Borehole size corrected compensated neutron porosity
CNCQH .PU   42 995 99  1 : Borehole size corrected compensated neutron porosity
CNQH  .PU   42 890  1  1 : Compensated neutron porosity
DEPTH .M    99   1 99  1 : System depth
GR    .GAPI 30 310  1  1 : Gamma ray
MBVI  .PU   99 995 99  1 : MR irreducible fluids
MBVM  .PU   99 995 99  1 : MR moveable fluids
MCBW  .PU   99 995 99  1 : MR clay bound porosity fluids
MPHE  .PU   99 995 99  1 : MR effective porosity
MPHS  .PU   99 995 99  1 : MR total porosity
MPRM  .MD   99 995 99  1 : MR permeability
PEQH  .B/E  45 358  1  1 : Photo electric cross-section
PORZ  .PU   45 890 99  1 : Porosity for selectable matrix
PORZC .PU   99 995 99  1 : Corrected porosity
TEN   .LBF  99 635 99  1 : Differential tension
TTEN  .LBF  99 635 99  1 : Total tension
WTBH  .DEGC 99 995 99  1 : Temperature of borehole
ZCORQH.G/C3 45 356 99  1 : Density correction
ZDEN  .G/C3 45 350  1  1 : Formation bulk density
ZDENQH.G/C3 45 350  1  1 : Formation bulk density
ZDNC  .G/C3 94 995 99  1 : Borehole size/mud weight corrected density
ZDNCQH.G/C3 94 995 99  1 : Borehole size/mud weight corrected density
~Params ----------------------------------------------------
HID1.        GAMMA RAY LOG : Header Identifer
HID2.   MAGNETIC RESONANCE : Header Identifer
HID3.         EXPLORER LOG : Header Identifer
CLAB.             RIG NAME : County Label (Comments)
SLAB.              COUNTRY : State Label (Comments)
STAT.          NETHERLANDS : State Or Province
CMT1.          FIELD PRINT : Comment 1
FL1 .                  LON : 04 21'09.62"  E                     : Field Location 1
FL2 .                UTM N : : Field Location 2
FL3 .                UTM E : : Field Location 3
OS1 .     HDIL/XMAC ZDL/CN : Other Services Line 1
OS2 .                  DSL : Other Services Line 2
OS3 .                 GXPL : Other Services Line 3
OS4 .                  BHP : Other Services Line 4
OS5 .                  RCI : Other Services Line 5
PDAT.                  MSL : Permanent Datum
EPD .M                   0 : Elevation Of Perm. Datum
LMF .                   DF : Log Measured From
APD .M                47.5 : Above Permanent Datum
DMF .                   DF : Drilling Measured From
EKB .M                47.5 : Elevation Of Kelly Bushing
EDF .M                47.5 : Elevation Of Derrick Floor
EGL .M               -42.0 : Elevation Of Ground Level
TRIP.                    3 : Trip Number
SON .            13-163585 : Service Order Number
TDD .M              2915.0 : Total Depth - Driller
BLI .M              2880.0 : Bottom Log Interval
TLI .M              2790.0 : Top Log Interval
CSIZ.IN             18.625 : Casing Size
CBDR.M              1666.0 : Casing Bottom - Driller
BS  .IN              8.375 : Bit Size
DFT .                LTOBM : Drilling Fluid Type
DFD .G/C3             1.51 : Drilling Fluid Density
DFV .S                  25 : Drilling Fluid Viscosity
DFL .C3                1.2 : Drilling Fluid Loss
MSS .             FLOWLINE : Mud Sample Source
RMS .OHMM              >10 : Resistivity Of Mud Sample
RMFS.OHMM              >10 : Resistivity Of Mud Filtrate Sample
RMCS.OHMM              >10 : Resistivity Of Mud Cake Sample
MFSS.                   NA : Mud Filtrate Sample Source
MCSS.                   NA : Mud Cake Sample Source
RMB .OHMM              >10 : Mud Resistivity At Bht
TSC .             20.6 HRS : Time Since Circulation
MRT .DEGC             94.6 : Maximum Recorded Temperature
LUN .                 8934 : Logging Unit Number
LUL .           DEN HELDER : Logging Unit Location
ENGI. A. WIEFKERS/M. HEKEL : Engineer's Name
WITN.         P. GERRITSEN : Witness' Name
TSTR.       /GR/MREX/MREX/ : Title Service Mnemonic
TSTG.                   NA : Title Service Mnemonic
STUS.                FINAL : Status
LCNM.          BAKER ATLAS : Logging Company Name
LCC .                  150 : Logging Company Code
OPMD.              OH.WIRE : Operation Mode
PANA. A. WIEFKERS/M. HEKEL : Processing Analyst
PCON.          BAKER ATLAS : Processing Contractor
DATE.          31-MAR-2013 : Date As Month-Day-Year
TRIP.                    4 : Trip Number
SON .            13-163585 : Service Order Number
TDD .M              2915.0 : Total Depth - Driller
BLI .M              2897.6 : Bottom Log Interval
TLI .M              2779.0 : Top Log Interval
CSIZ.IN             18.625 : Casing Size
CBDR.M              1666.0 : Casing Bottom - Driller
BS  .IN              8.375 : Bit Size
DFT .                LTOBM : Drilling Fluid Type
DFD .G/C3             1.51 : Drilling Fluid Density
DFV .S                  25 : Drilling Fluid Viscosity
DFL .C3                1.2 : Drilling Fluid Loss
MSS .             FLOWLINE : Mud Sample Source
RMS .OHMM              >10 : Resistivity Of Mud Sample
RMFS.OHMM              >10 : Resistivity Of Mud Filtrate Sample
RMCS.OHMM              >10 : Resistivity Of Mud Cake Sample
MFSS.                   NA : Mud Filtrate Sample Source
MCSS.                   NA : Mud Cake Sample Source
RMB .OHMM              >10 : Mud Resistivity At Bht
TSC .             29.4 HRS : Time Since Circulation
MRT .DEGC             94.2 : Maximum Recorded Temperature
LUN .                 8934 : Logging Unit Number
LUL .           DEN HELDER : Logging Unit Location
ENGI. A. WIEFKERS/M. HEKEL : Engineer's Name
WITN.         P. GERRITSEN : Witness' Name
APIN.                      : API Serial Number
~Other -----------------------------------------------------
DEPTH AUDIT:
- ALL DEPTHS ARE REFERENCED TO DRILL FLOOR.
- LOG TIED INTO RUN A1 DSL/ORIT/XMAC/WGI/HDIL DATED 30-MAR-2013.
- TOOLS ZEROED ON DRILL FLOOR AT TTRM WRM AT 18.04 M.
GENERAL:
- LAST CIRCULATION ON 30-MAR-2013 AT 09:00 HRS FOR 3 HRS.
- MAXIMUM RECORDED TEMPERATURE FROM TTRM SUB IS 94.6 DEGC AT 2784.4 M
- MAXIMUM RECORDED DEVIATION IS 23.9 DEG AT 2173.605.
- TOOLSTRING RUN  A3 MRCH/EEJ/GR/CN/ZDL/MREX.
- CN/ZDL RECORDED SIMULTANEOUS BUT PRESENTED UNDER SEPARATE HEADINGS.
- ADDITIONAL MUD PROPERTIES: WHOLE MUD SALINITY = 31000 MG/L
CORRECTED SOLIDS = 24 %
YP = 16 LB/100FT2
PV = 25 CP
OIL/WATER RATIO 76/24
LOGGING PASS ABORTED DUE TO MREX COMMINUCATION ISSUES.
NO MREX DATA RECORDED.
DEPTH AUDIT:
- ALL DEPTHS ARE REFERENCED TO DRILL FLOOR.
- LOG TIED INTO RUN A1 DSL/ORIT/XMAC/WGI/HDIL DATED 30-MAR-2013.
- TOOLS ZEROED ON DRILL FLOOR AT TTRM WRM AT 18.04 M
GENERAL:
- LAST CIRCULATION ON 30-MAR-2013 AT 09:00 HRS FOR 3 HRS.
- MAXIMUM RECORDED TEMPERATURE FROM TTRM SUB IS 94.6 DEGC AT 2784.4 M
- MAXIMUM RECORDED DEVIATION IS 23.9 DEG AT 2173.605.
- TOOLSTRING RUN  A3 MRCH/EEJ/GR/CN/ZDL/MREX.
- CN/ZDL RECORDED SIMULTANEOUS BUT PRESENTED UNDER SEPARATE HEADINGS.
- ADDITIONAL MUD PROPERTIES: WHOLE MUD SALINITY = 31000 MG/L
CORRECTED SOLIDS = 24 %
YP = 16 LB/100FT2
PV = 25 CP
OIL/WATER RATIO 76/24
MREX:
- MREX LOGGED IN PP LIGHT OIL.
PARAMETERS USED : TW=11.1 SEC , VRES 0.6M AND AL=6.
DATA RECORDED IN TO PASSES, DUE TO OVERPULL ON THE TOOLSTRING.
DATA FILES SPLICED AT 2837.0M ON CUSTOMERS REQUEST.
#  Curve Data
~ASCII -----------------------------------------------------
# ...
 2850.37500   91.70400    8.28200 2220.75500   28.62200   28.45900   26.63400   26.79900 2850.37500   87.64400    7.10600    1.54400    4.46400    8.65000   13.11400    0.03200    4.46000   16.90400   17.35300  -67.53500 5448.30400   93.52100    0.01400    2.42100    2.41700    2.41300    2.40900
 2850.50000   92.15700    8.27700 2293.40600   30.94700   30.79700   29.09800   29.25300 2850.50000   91.05100    6.88200    1.19400    5.34200    8.07600   13.41800    0.01800    4.47700   17.05100   17.49900    1.40500 5518.98300   93.28400    0.02900    2.41800    2.41000    2.41100    2.40300
 2850.62500   91.61000    8.26800 2343.22500   32.76900   32.63900   32.50000   32.63000 2850.62500   95.21100    6.26300    0.86200    6.38400    7.12600   13.51000    0.00900    4.03000   16.38900   16.84100   55.43800 5563.17300   92.75000    0.04200    2.43000    2.42600    2.42200    2.41900
 2850.75000   92.11900    8.25800 2344.61000   33.49700   33.38300   33.37300   33.48400 2850.75000   99.71900    5.42300    0.60400    7.46600    6.02600   13.49300    0.00300    3.68300   15.04200   15.50100   69.71500 5562.64000   92.46600    0.04500    2.45300    2.46300    2.44500    2.45500
 2850.87500   93.26400    8.24900 2307.23400   33.71800   33.61700   32.61400   32.72200 2850.87500  104.25200    4.64000    0.42500    8.37500    5.06600   13.44100    0.00100    4.20000   13.47000   13.93800   52.99400 5532.42800   92.63100    0.03500    2.48000    2.48200    2.47200    2.47400
 2851.00000   92.83600    8.24800 2260.77900   34.29400   34.19800   33.09400   33.19800 2851.00000  107.16200    4.13600    0.33500    8.85500    4.47100   13.32600    0.00000    5.14900   12.03200   12.50700   23.44200 5494.81100   92.93400    0.02900    2.50400    2.49900    2.49600    2.49100
 2851.12500   92.67300    8.25700 2234.86200   34.90200   34.80000   34.54400   34.65100 2851.12500  106.43500    3.83900    0.31000    8.95300    4.14900   13.10200    0.00000    5.50000   10.60300   11.08600   -0.85700 5467.78600   92.97800    0.02900    2.52900    2.51700    2.52000    2.50900
 2851.25000   92.44500    8.26600 2229.09000   34.69500   34.57900   37.17300   37.26700 2851.25000  102.46000    3.60800    0.33900    8.89600    3.94700   12.84300    0.00000    5.91000    9.11700    9.60700  -15.03000 5454.68800   92.79200    0.03300    2.55400    2.55300    2.54600    2.54400
 2851.37500   91.79900    8.26100 2227.35200   33.73900   33.62200   34.92800   35.03200 2851.37500   99.03600    3.37100    0.39900    8.99400    3.77000   12.76400    0.00000    6.43100    8.20900    8.70300  -23.03500 5450.03700   92.64900    0.04600    2.57000    2.59400    2.56100    2.58600
 2851.50000   91.44000    8.24500 2228.02900   33.23300   33.13400   31.68200   31.78700 2851.50000   99.55500    3.18000    0.44000    9.39800    3.62000   13.01800    0.00000    6.96700    8.28600    8.77900  -28.58000 5448.83700   92.67100    0.05300    2.56800    2.57800    2.56000    2.57000
 2851.62500   91.09600    8.23100 2234.78000   33.92700   33.85000   31.59800   31.68900 2851.62500  104.42700    3.11900    0.42300   10.10600    3.54200   13.64800    0.00000    7.31700    8.94500    9.43400  -30.38800 5451.56600   92.74800    0.06300    2.55700    2.55900    2.54900    2.55100
 2851.75000   92.01200    8.23500 2242.92900   35.58200   35.51400   34.10500   34.18800 2851.75000  110.93900    3.22000    0.33300   10.87800    3.55300   14.43100    0.00000    6.80300    9.40900    9.89600  -23.98500 5461.53000   92.75600    0.06200    2.54900    2.55100    2.54100    2.54300
 2851.87500   94.55700    8.24900 2245.94100   36.83900   36.76500   36.77300   36.84900 2851.87500  116.05200    3.33700    0.22200   11.36600    3.55900   14.92500    0.00000    5.95200    9.41700    9.90500   -8.96700 5478.01900   92.76400    0.04900    2.54900    2.55300    2.54100    2.54500
 2852.00000   92.80400    8.25900 2247.81500   36.61300   36.52300   38.15400   38.22900 2852.00000  117.78600    3.28000    0.14600   11.29900    3.42600   14.72600    0.00000    5.79500    8.84900    9.34000   13.55600 5498.69700   92.79300    0.03500    2.55900    2.55600    2.55000    2.54700
 2852.12500   91.99200    8.26100 2251.60000   34.77500   34.66700   37.10700   37.19400 2852.12500  113.79300    2.97700    0.11500   10.70100    3.09100   13.79200    0.00000    6.17700    7.21800    7.71600   35.45100 5514.84900   92.91700    0.02400    2.58700    2.56000    2.57800    2.55100
 2852.25000   92.92900    8.25600 2245.42300   31.83100   31.71000   36.37400   36.46100 2852.25000  103.65900    2.51800    0.09500    9.79300    2.61400   12.40600    0.00000    5.79400    4.25500    4.76400   42.58700 5513.82200   93.15700    0.02500    2.63700    2.62200    2.62900    2.61300
 2852.37500   92.55200    8.24900 2220.73900   28.98800   28.86300   34.06800   34.16300 2852.37500   89.86600    2.01500    0.06900    8.81800    2.08400   10.90200    0.00000    5.02200    0.86500    1.38500   23.68700 5488.08000   93.35100    0.02500    2.69500    2.71000    2.68600    2.70100
 2852.50000   91.07600    8.24500 2197.64700   27.68000   27.55500   28.26000   28.38200 2852.50000   79.51000    1.58600    0.04400    8.08100    1.63000    9.71100    0.00000    5.04000   -0.26600    0.25800   -4.14200 5458.38800   93.20000    0.02600    2.71500    2.76600    2.70600    2.75700
 2852.62500   92.06100    8.24600 2191.92200   28.34400   28.22000   25.30800   25.43900 2852.62500   77.96900    1.33100    0.04000    7.80400    1.37100    9.17600    0.00000    5.20300    1.93500    2.45200  -18.49000 5446.44800   92.68200    0.03300    2.67700    2.72800    2.66800    2.71900
 2852.75000   91.69400    8.25000 2199.45600   31.17200   31.05600   27.66200   27.79300 2852.75000   87.63000    1.35300    0.07600    8.19600    1.42900    9.62500    0.00000    4.95400    5.77600    6.27900  -10.64000 5457.11000   91.99600    0.04400    2.61100    2.61700    2.60300    2.60900
 2852.87500   92.05700    8.25000 2200.87000   34.83000   34.73700   31.59300   31.70700 2852.87500  101.95900    1.57200    0.13500    9.05200    1.70700   10.75900    0.00000    4.66600    8.54800    9.04000   -1.09700 5467.00600   91.48000    0.06000    2.56400    2.54500    2.55500    2.53700
 2853.00000   91.94700    8.24800 2193.49700   37.48400   37.41700   36.61000   36.68500 2853.00000  114.81500    1.86800    0.18500   10.03500    2.05300   12.08800    0.00000    4.76900    9.56300   10.05000   -0.67300 5466.16500   91.35000    0.07300    2.54600    2.55000    2.53800    2.54200
 2853.12500   94.68000    8.25000 2186.02900   38.14000   38.07800   37.93700   38.00200 2853.12500  121.49400    2.10800    0.19800   10.71200    2.30600   13.01800    0.00000    4.74900    9.32000    9.80800   -6.28700 5460.38300   91.74700    0.07000    2.55100    2.57300    2.54200    2.56500
 2853.25000   91.79400    8.25400 2182.67700   37.50300   37.42800   38.30100   38.36800 2853.25000  123.08200    2.23800    0.18900   10.96200    2.42700   13.38900    0.00000    4.64600    8.74900    9.24000   -9.39400 5459.59300   92.29000    0.05100    2.56000    2.56500    2.55200    2.55600
 2853.37500   92.74400    8.25700 2179.62500   35.98700   35.89400   38.25200   38.32200 2853.37500  120.74500    2.25400    0.17300   10.83800    2.42700   13.26500    0.00000    4.77500    7.92900    8.42300   -9.93900 5464.06000   92.56700    0.04000    2.57400    2.55900    2.56600    2.55000
 2853.50000   92.68400    8.25200 2177.41800   34.38800   34.28700   36.20800   36.29000 2853.50000  114.54200    2.17900    0.14800   10.48600    2.32700   12.81300    0.00000    5.00600    6.31500    6.81600  -13.15100 5467.82800   92.55200    0.03500    2.60200    2.58800    2.59300    2.57900
 2853.62500   91.72900    8.24500 2178.90500   33.05200   32.95100   34.51900   34.60800 2853.62500  105.92300    2.03800    0.11300   10.07300    2.15000   12.22300    0.00000    4.91700    4.25700    4.76600  -22.31900 5466.48000   92.44400    0.02400    2.63700    2.65800    2.62900    2.64900
