~Version ---------------------------------------------------
VERS. 2.0 : CWLS log ASCII Standard -VERSION 2.0
WRAP.  NO : One line per frame
~Well ------------------------------------------------------
STRT.M            2772.75 : Starting Depth
STOP.M           2907.625 : Ending Depth
STEP.M              0.125 : Level Spacing
NULL.             -999.25 : Absent Value
COMP.            GDF SUEZ : Company
WELL.               L5-15 : Well
FLD .              L5 OIL : Field
LOC . LAT: 53 48'42.03" N : Location
PROV.    NOBLE PIET V EDE : Province
SRVC.         Baker ATLAS : Service Company
LIC .                     : License Number
DATE.         31-MAR-2013 : Log Date
UWI .                     : Unique Well ID
~Curve Information -----------------------------------------
DEPT  .M    99 995 99  1 : Depth
BHT   .DEGC 99 995 99  1 : Borehole temperature
CAL   .IN   70 280 99  1 : Caliper
CHT   .LBF  99 635 99  1 : Cable head tension
CN    .PU   42 890  1  1 : Compensated neutron porosity
CNC   .PU   42 995 99  1 : Borehole size corrected compensated neutron porosity
CNCQH .PU   42 995 99  1 : Borehole size corrected compensated neutron porosity
CNQH  .PU   42 890  1  1 : Compensated neutron porosity
DEPTH .M    99   1 99  1 : System depth
GR    .GAPI 30 310  1  1 : Gamma ray
MBVI  .PU   99 995 99  1 : MR irreducible fluids
MBVM  .PU   99 995 99  1 : MR moveable fluids
MCBW  .PU   99 995 99  1 : MR clay bound porosity fluids
MPHE  .PU   99 995 99  1 : MR effective porosity
MPHS  .PU   99 995 99  1 : MR total porosity
MPRM  .MD   99 995 99  1 : MR permeability
PEQH  .B/E  45 358  1  1 : Photo electric cross-section
PORZ  .PU   45 890 99  1 : Porosity for selectable matrix
PORZC .PU   99 995 99  1 : Corrected porosity
TEN   .LBF  99 635 99  1 : Differential tension
TTEN  .LBF  99 635 99  1 : Total tension
WTBH  .DEGC 99 995 99  1 : Temperature of borehole
ZCORQH.G/C3 45 356 99  1 : Density correction
ZDEN  .G/C3 45 350  1  1 : Formation bulk density
ZDENQH.G/C3 45 350  1  1 : Formation bulk density
ZDNC  .G/C3 94 995 99  1 : Borehole size/mud weight corrected density
ZDNCQH.G/C3 94 995 99  1 : Borehole size/mud weight corrected density
~Params ----------------------------------------------------
HID1.        GAMMA RAY LOG : Header Identifer
HID2.   MAGNETIC RESONANCE : Header Identifer
HID3.         EXPLORER LOG : Header Identifer
CLAB.             RIG NAME : County Label (Comments)
SLAB.              COUNTRY : State Label (Comments)
STAT.          NETHERLANDS : State Or Province
CMT1.          FIELD PRINT : Comment 1
FL1 .                  LON : 04 21'09.62"  E                     : Field Location 1
FL2 .                UTM N : : Field Location 2
FL3 .                UTM E : : Field Location 3
OS1 .     HDIL/XMAC ZDL/CN : Other Services Line 1
OS2 .                  DSL : Other Services Line 2
OS3 .                 GXPL : Other Services Line 3
OS4 .                  BHP : Other Services Line 4
OS5 .                  RCI : Other Services Line 5
PDAT.                  MSL : Permanent Datum
EPD .M                   0 : Elevation Of Perm. Datum
LMF .                   DF : Log Measured From
APD .M                47.5 : Above Permanent Datum
DMF .                   DF : Drilling Measured From
EKB .M                47.5 : Elevation Of Kelly Bushing
EDF .M                47.5 : Elevation Of Derrick Floor
EGL .M               -42.0 : Elevation Of Ground Level
TRIP.                    3 : Trip Number
SON .            13-163585 : Service Order Number
TDD .M              2915.0 : Total Depth - Driller
BLI .M              2880.0 : Bottom Log Interval
TLI .M              2790.0 : Top Log Interval
CSIZ.IN             18.625 : Casing Size
CBDR.M              1666.0 : Casing Bottom - Driller
BS  .IN              8.375 : Bit Size
DFT .                LTOBM : Drilling Fluid Type
DFD .G/C3             1.51 : Drilling Fluid Density
DFV .S                  25 : Drilling Fluid Viscosity
DFL .C3                1.2 : Drilling Fluid Loss
MSS .             FLOWLINE : Mud Sample Source
RMS .OHMM              >10 : Resistivity Of Mud Sample
RMFS.OHMM              >10 : Resistivity Of Mud Filtrate Sample
RMCS.OHMM              >10 : Resistivity Of Mud Cake Sample
MFSS.                   NA : Mud Filtrate Sample Source
MCSS.                   NA : Mud Cake Sample Source
RMB .OHMM              >10 : Mud Resistivity At Bht
TSC .             20.6 HRS : Time Since Circulation
MRT .DEGC             94.6 : Maximum Recorded Temperature
LUN .                 8934 : Logging Unit Number
LUL .           DEN HELDER : Logging Unit Location
ENGI. A. WIEFKERS/M. HEKEL : Engineer's Name
WITN.         P. GERRITSEN : Witness' Name
TSTR.       /GR/MREX/MREX/ : Title Service Mnemonic
TSTG.                   NA : Title Service Mnemonic
STUS.                FINAL : Status
LCNM.          BAKER ATLAS : Logging Company Name
LCC .                  150 : Logging Company Code
OPMD.              OH.WIRE : Operation Mode
PANA. A. WIEFKERS/M. HEKEL : Processing Analyst
PCON.          BAKER ATLAS : Processing Contractor
DATE.          31-MAR-2013 : Date As Month-Day-Year
TRIP.                    4 : Trip Number
SON .            13-163585 : Service Order Number
TDD .M              2915.0 : Total Depth - Driller
BLI .M              2897.6 : Bottom Log Interval
TLI .M              2779.0 : Top Log Interval
CSIZ.IN             18.625 : Casing Size
CBDR.M              1666.0 : Casing Bottom - Driller
BS  .IN              8.375 : Bit Size
DFT .                LTOBM : Drilling Fluid Type
DFD .G/C3             1.51 : Drilling Fluid Density
DFV .S                  25 : Drilling Fluid Viscosity
DFL .C3                1.2 : Drilling Fluid Loss
MSS .             FLOWLINE : Mud Sample Source
RMS .OHMM              >10 : Resistivity Of Mud Sample
RMFS.OHMM              >10 : Resistivity Of Mud Filtrate Sample
RMCS.OHMM              >10 : Resistivity Of Mud Cake Sample
MFSS.                   NA : Mud Filtrate Sample Source
MCSS.                   NA : Mud Cake Sample Source
RMB .OHMM              >10 : Mud Resistivity At Bht
TSC .             29.4 HRS : Time Since Circulation
MRT .DEGC             94.2 : Maximum Recorded Temperature
LUN .                 8934 : Logging Unit Number
LUL .           DEN HELDER : Logging Unit Location
ENGI. A. WIEFKERS/M. HEKEL : Engineer's Name
WITN.         P. GERRITSEN : Witness' Name
APIN.                      : API Serial Number
~Other -----------------------------------------------------
DEPTH AUDIT:
- ALL DEPTHS ARE REFERENCED TO DRILL FLOOR.
- LOG TIED INTO RUN A1 DSL/ORIT/XMAC/WGI/HDIL DATED 30-MAR-2013.
- TOOLS ZEROED ON DRILL FLOOR AT TTRM WRM AT 18.04 M.
GENERAL:
- LAST CIRCULATION ON 30-MAR-2013 AT 09:00 HRS FOR 3 HRS.
- MAXIMUM RECORDED TEMPERATURE FROM TTRM SUB IS 94.6 DEGC AT 2784.4 M
- MAXIMUM RECORDED DEVIATION IS 23.9 DEG AT 2173.605.
- TOOLSTRING RUN  A3 MRCH/EEJ/GR/CN/ZDL/MREX.
- CN/ZDL RECORDED SIMULTANEOUS BUT PRESENTED UNDER SEPARATE HEADINGS.
- ADDITIONAL MUD PROPERTIES: WHOLE MUD SALINITY = 31000 MG/L
CORRECTED SOLIDS = 24 %
YP = 16 LB/100FT2
PV = 25 CP
OIL/WATER RATIO 76/24
LOGGING PASS ABORTED DUE TO MREX COMMINUCATION ISSUES.
NO MREX DATA RECORDED.
DEPTH AUDIT:
- ALL DEPTHS ARE REFERENCED TO DRILL FLOOR.
- LOG TIED INTO RUN A1 DSL/ORIT/XMAC/WGI/HDIL DATED 30-MAR-2013.
- TOOLS ZEROED ON DRILL FLOOR AT TTRM WRM AT 18.04 M
GENERAL:
- LAST CIRCULATION ON 30-MAR-2013 AT 09:00 HRS FOR 3 HRS.
- MAXIMUM RECORDED TEMPERATURE FROM TTRM SUB IS 94.6 DEGC AT 2784.4 M
- MAXIMUM RECORDED DEVIATION IS 23.9 DEG AT 2173.605.
- TOOLSTRING RUN  A3 MRCH/EEJ/GR/CN/ZDL/MREX.
- CN/ZDL RECORDED SIMULTANEOUS BUT PRESENTED UNDER SEPARATE HEADINGS.
- ADDITIONAL MUD PROPERTIES: WHOLE MUD SALINITY = 31000 MG/L
CORRECTED SOLIDS = 24 %
YP = 16 LB/100FT2
PV = 25 CP
OIL/WATER RATIO 76/24
MREX:
- MREX LOGGED IN PP LIGHT OIL.
PARAMETERS USED : TW=11.1 SEC , VRES 0.6M AND AL=6.
DATA RECORDED IN TO PASSES, DUE TO OVERPULL ON THE TOOLSTRING.
DATA FILES SPLICED AT 2837.0M ON CUSTOMERS REQUEST.
#  Curve Data
~ASCII -----------------------------------------------------
# ...
 2823.37500   92.46900    8.21600 2177.78000   20.57400   20.47100   19.68000   19.78200 2823.37500   65.69700    4.07900    5.19600    3.47400    9.27400   12.74900    1.24700    3.41300   14.96400   15.42300  -40.99700 5344.78100   91.26400    0.02600    2.45400    2.45900    2.44600    2.45100
 2823.50000   89.86900    8.20900 2192.01000   20.90900   20.81300   20.74200   20.83800 2823.50000   66.64200    4.32100    4.93700    3.35700    9.25700   12.61500    1.02500    3.50700   14.79500   15.25400  -39.23800 5353.35200   91.37500    0.02600    2.45700    2.47300    2.44900    2.46500
 2823.62500   91.56400    8.20700 2197.39800   21.15100   21.05600   21.57800   21.67400 2823.62500   64.74100    4.64800    4.76300    3.28800    9.41100   12.69900    0.89600    3.44100   15.22400   15.68100  -22.52800 5374.61800   91.27500    0.02200    2.45000    2.45600    2.44200    2.44800
 2823.75000   90.59800    8.21600 2201.44200   21.07800   20.97600   21.55200   21.65500 2823.75000   61.03000    4.93800    4.90700    3.15000    9.84600   12.99500    1.09400    3.36300   16.08700   16.53800    3.13500 5401.11700   91.01500    0.02100    2.43500    2.43400    2.42700    2.42600
 2823.87500   88.60100    8.23200 2210.44100   20.82700   20.70900   20.84700   20.96700 2823.87500   56.41100    5.08700    5.50800    2.80200   10.59500   13.39700    1.91200    3.24200   17.07000   17.51600   26.12900 5419.81000   90.87200    0.02400    2.41800    2.42500    2.41000    2.41700
 2824.00000   92.13400    8.24300 2218.97600   20.63100   20.50400   20.35800   20.48600 2824.00000   50.56900    5.10100    6.42300    2.26500   11.52300   13.78800    3.83100    3.16200   17.93800   18.38000   35.42400 5421.53100   91.10000    0.02300    2.40300    2.41200    2.39600    2.40400
 2824.12500   91.39900    8.24000 2221.82300   20.37800   20.25400   20.57500   20.70000 2824.12500   43.43400    4.98600    7.50900    1.65300   12.49400   14.14800    7.69500    3.16700   18.49500   18.93300   29.85200 5408.11700   91.54500    0.02100    2.39400    2.39000    2.38600    2.38200
 2824.25000   90.22400    8.22600 2218.79900   19.83400   19.72300   20.96400   21.07400 2824.25000   36.28000    4.70100    8.66300    1.08700   13.36400   14.45100   14.65000    3.15000   18.35600   18.79500   15.34900 5388.20400   91.84100    0.02400    2.39600    2.38700    2.38900    2.38000
 2824.37500   90.78700    8.21700 2214.80400   19.18100   19.07900   19.70800   19.81000 2824.37500   31.00000    4.33600    9.70200    0.65500   14.03800   14.69300   23.53600    3.15500   17.71600   18.15800    3.43700 5373.42200   91.79400    0.02500    2.40700    2.40700    2.39900    2.39900
 2824.50000   89.89200    8.21400 2209.96600   18.71700   18.61800   18.63500   18.73400 2824.50000   28.44200    4.02900   10.45500    0.40000   14.48400   14.88400   32.02200    3.32300   17.30000   17.74400    1.95900 5370.84400   91.49000    0.02500    2.41400    2.43200    2.40700    2.42400
 2824.62500   89.90900    8.21500 2204.04300   18.55400   18.45400   18.59300   18.69400 2824.62500   28.84600    3.90000   10.75100    0.33300   14.65100   14.98400   36.10900    3.18100   17.94500   18.38500   12.54500 5380.47100   91.18800    0.02700    2.40300    2.42800    2.39600    2.42100
 2824.75000   87.38700    8.21500 2198.83900   18.48900   18.38900   18.60300   18.70300 2824.75000   32.20300    3.92800   10.57600    0.40000   14.50400   14.90500   34.14900    2.96200   19.11500   19.54800   26.23900 5391.72600   90.97500    0.02700    2.38300    2.38100    2.37600    2.37400
 2824.87500   89.43900    8.21200 2189.57700   18.48500   18.38800   18.35500   18.45200 2824.87500   38.97600    4.10200    9.84000    0.61400   13.94200   14.55600   26.39600    2.82000   19.74100   20.17000   32.94400 5393.66900   90.81700    0.03100    2.37200    2.35300    2.36500    2.34600
 2825.00000   89.99800    8.20600 2167.49500   18.83100   18.73800   17.78900   17.88000 2825.00000   47.23600    4.39200    8.61300    0.97900   13.00400   13.98300   16.46500    2.75500   19.31100   19.74300   27.21100 5382.05200   90.65500    0.04100    2.38000    2.37400    2.37200    2.36700
 2825.12500   90.42500    8.20300 2135.99900   19.72300   19.63300   18.08200   18.17100 2825.12500   52.95900    4.74000    7.20900    1.39800   11.94900   13.34700    8.14700    2.97100   18.65000   19.08500   13.65200 5363.67600   90.54200    0.04900    2.39100    2.41100    2.38400    2.40400
 2825.25000   89.69600    8.20900 2110.04300   21.07500   20.97900   19.77300   19.87000 2825.25000   52.75000    5.13600    5.94700    1.73400   11.08400   12.81700    3.36500    3.19000   18.91100   19.34500   -0.80900 5347.08300   90.59200    0.04800    2.38700    2.41400    2.37900    2.40700
 2825.37500   90.64700    8.22200 2105.35000   22.25300   22.14500   21.88300   21.99400 2825.37500   48.48600    5.58100    4.99800    1.92000   10.57900   12.50000    1.38200    3.33000   20.11900   20.54500   -9.37000 5338.67300   90.74800    0.03900    2.36600    2.37300    2.35900    2.36500
 2825.50000   89.98800    8.23700 2118.59000   22.82700   22.70500   22.93200   23.05500 2825.50000   44.71200    6.04200    4.30800    1.99900   10.35000   12.35000    0.69400    3.21800   21.25500   21.67400   -8.20100 5340.76300   90.83700    0.03600    2.34700    2.33800    2.33900    2.33100
 2825.62500   89.51900    8.25100 2130.43200   22.86400   22.72800   23.00900   23.14800 2825.62500   45.63000    6.41000    3.75400    2.09800   10.16400   12.26200    0.42300    2.99100   21.08600   21.50800   -1.58400 5347.90700   90.64700    0.03300    2.34900    2.33600    2.34200    2.32900
 2825.75000   90.21400    8.26300 2130.15000   22.80800   22.66000   22.46600   22.61600 2825.75000   51.81500    6.59600    3.19000    2.40800    9.78600   12.19400    0.26300    3.13900   19.26000   19.69400    1.21900 5351.26100   90.39200    0.02300    2.38100    2.36200    2.37300    2.35500
 2825.87500   90.97500    8.27500 2126.24100   22.94900   22.79000   22.13600   22.29400 2825.87500   62.68600    6.60000    2.56000    3.05300    9.16000   12.21300    0.15000    3.75500   16.16700   16.62100   -0.38400 5351.00800   90.49300    0.01600    2.43400    2.42300    2.42600    2.41500
 2826.00000   92.53100    8.30400 2131.10700   23.75700   23.56800   21.89000   22.08400 2826.00000   77.16700    6.43700    1.89400    4.11400    8.33100   12.44500    0.07200    4.55300   13.23900   13.71000   -0.66500 5352.79200   91.05900    0.02300    2.48400    2.50300    2.47600    2.49500
 2826.12500   90.92500    8.37000 2137.40900   25.47600   25.21900   22.72300   22.98600 2826.12500   91.80500    6.15800    1.28400    5.47300    7.44200   12.91500    0.02800    5.48000   12.06200   12.54100    3.88000 5358.88700   91.55800    0.03500    2.50400    2.52700    2.49600    2.51900
 2826.25000   89.90800    8.46300 2134.61100   28.09400   27.73300   26.10100   26.46200 2826.25000  103.65600    5.81500    0.81600    6.98700    6.63100   13.61800    0.00900    5.96300   13.06600   13.54400    9.55500 5364.55000   91.65900    0.05000    2.48700    2.50600    2.47800    2.49700
 2826.37500   91.06100    8.54700 2123.61100   30.79300   30.33200   28.79400   29.27500 2826.37500  111.13900    5.45100    0.58600    8.46800    6.03700   14.50400    0.00300    5.55200   15.33400   15.80200   11.15500 5364.30000   91.43400    0.06800    2.44800    2.46700    2.44000    2.45900
 2826.50000   88.88900    8.67500 2114.24400   32.73600   32.12400   31.31100   31.94600 2826.50000  115.60800    5.05300    0.59700    9.81700    5.65000   15.46700    0.00200    6.33800   17.84400   18.30200    9.23300 5359.55100   91.19600    0.08400    2.40500    2.42300    2.39700    2.41500
 2826.62500   90.00000    8.95000 2108.04900   34.15700   33.22400   30.17300   31.11300 2826.62500  118.45900    4.60200    0.79200   11.03000    5.39300   16.42300    0.00300    8.63100   20.04800   20.50300    1.11000 5349.06700   91.10700    0.09200    2.36700    2.38300    2.35900    2.37500
